latitude	longitude	store_name	code	location	imei
50.75767	-1.5443	Lymington	GB	Europe/London	3590433799317661636
53.95278	32.86389	Roslavl‚Äô	RU	Europe/Moscow	359043379931766130
20.74122	-100.44843	Santa Rosa Jauregui	MX	America/Mexico_City	8630330696303482261
54.58048	16.86194	Ustka	PL	Europe/Warsaw	8630330696303481164
14.37395	100.48528	Bang Ban	TH	Asia/Bangkok	359043379931766262
44.98901	38.94324	Yablonovskiy	RU	Europe/Moscow	3590433799317662147
29.84576	-90.10674	Estelle	US	America/Chicago	8630330696303481925
-21.205	-41.88778	Itaperuna	BR	America/Sao_Paulo	863033069630348701
48.77275	5.16108	Bar-le-Duc	FR	Europe/Paris	359043379931766775
45.44868	-73.81669	Pointe-Claire	CA	America/Toronto	863033069630348743
52.71083	5.74861	Emmeloord	NL	Europe/Amsterdam	863033069630348495
40.56754	-89.64066	Pekin	US	America/Chicago	3590433799317661768
60.2052	24.6522	Espoo	FI	Europe/Helsinki	8630330696303482329
-22.9	44.53333	Sakaraha	MG	Indian/Antananarivo	359043379931766734
-34.74785	-58.70072	Pontevedra	AR	America/Argentina/Buenos_Aires	359043379931766593
41.24264	16.50104	Bisceglie	IT	Europe/Rome	3590433799317661214
-17.74431	-48.62789	Caldas Novas	BR	America/Sao_Paulo	3590433799317662485
34.25	135.31667	Iwade	JP	Asia/Tokyo	3590433799317662071
-23.85972	35.34722	Maxixe	MZ	Africa/Maputo	3590433799317662006
36.19278	117.65694	Laiwu	CN	Asia/Shanghai	359043379931766437
10.58806	77.24779	Udumalaippettai	IN	Asia/Kolkata	863033069630348263
52.86147	9.5926	Walsrode	DE	Europe/Berlin	3590433799317661636
43.16547	-77.70066	Gates-North Gates	US	America/New_York	8630330696303481578
33.86419	48.26258	Aleshtar	IR	Asia/Tehran	3590433799317662378
-7.51611	109.05389	Wangon	ID	Asia/Jakarta	863033069630348495
25.80565	68.49143	Bhit Shah	PK	Asia/Karachi	863033069630348826
50.88506	4.07601	Denderleeuw	BE	Europe/Brussels	3590433799317662402
12.35275	121.06761	San Jose	PH	Asia/Manila	8630330696303482105
-21.42917	-45.94722	Alfenas	BR	America/Sao_Paulo	8630330696303481883
40.49748	44.7662	Hrazdan	AM	Asia/Yerevan	359043379931766528
33.50921	-111.89903	Scottsdale	US	America/Phoenix	3590433799317661396
52.21099	7.02238	Gronau	DE	Europe/Berlin	863033069630348131
-22.53722	-42.98194	Guapimirim	BR	America/Sao_Paulo	359043379931766890
16.455	120.5875	La Trinidad	PH	Asia/Manila	863033069630348958
-15.21194	-75.11028	Minas de Marcona	PE	America/Lima	863033069630348156
12.18441	18.69303	Mongo	TD	Africa/Ndjamena	863033069630348248
27.52948	68.75915	Khairpur Mir‚Äôs	PK	Asia/Karachi	359043379931766981
35.74788	-95.36969	Muskogee	US	America/Chicago	3590433799317662428
33.78333	114.51667	Wacheng	CN	Asia/Shanghai	8630330696303481388
46.1351	-60.1831	Sydney	CA	America/Glace_Bay	8630330696303481644
47.90771	106.88324	Ulan Bator	MN	Asia/Ulaanbaatar	3590433799317662063
48.21644	9.02596	Albstadt	DE	Europe/Berlin	3590433799317661305
-22.9	44.53333	Sakaraha	MG	Indian/Antananarivo	3590433799317662469
-7.54972	110.71639	Ngemplak	ID	Asia/Jakarta	8630330696303481743
46.51872	86.00214	Hoxtolgay	CN	Asia/Urumqi	863033069630348529
36.72544	3.55665	Thenia	DZ	Africa/Algiers	863033069630348479
42.4251	-71.06616	Malden	US	America/New_York	3590433799317661040
49.13645	8.91229	Eppingen	DE	Europe/Berlin	359043379931766395
41.09822	120.74792	Nanpiao	CN	Asia/Shanghai	8630330696303481438
28.92694	78.23456	Bachhraon	IN	Asia/Kolkata	8630330696303481230
15.45144	78.14797	Betamcherla	IN	Asia/Kolkata	8630330696303481305
43.54072	-116.56346	Nampa	US	America/Boise	3590433799317661800
12.35275	121.06761	San Jose	PH	Asia/Manila	359043379931766262
-33.79176	151.08057	Eastwood	AU	Australia/Sydney	3590433799317661990
-27.4338	-65.61427	Aguilares	AR	America/Argentina/Tucuman	863033069630348792
33.03699	-117.29198	Encinitas	US	America/Los_Angeles	8630330696303481362
36.02506	-86.77917	Brentwood Estates	US	America/Chicago	8630330696303481529
41.75338	-86.11084	Granger	US	America/Indiana/Indianapolis	3590433799317662444
35.64889	117.27583	Sishui	CN	Asia/Shanghai	359043379931766965
46.32313	-0.45877	Niort	FR	Europe/Paris	8630330696303481743
46.65581	32.6178	Kherson	UA	Europe/Kyiv	8630330696303481842
40.72371	-73.95097	Greenpoint	US	America/New_York	359043379931766312
42.8139	-1.64295	Segundo Ensanche	ES	Europe/Madrid	359043379931766049
58.63667	59.80222	Lesnoy	RU	Asia/Yekaterinburg	8630330696303482121
46.1351	-60.1831	Sydney	CA	America/Glace_Bay	359043379931766098
51.21667	6.26667	Schwalmtal	DE	Europe/Berlin	3590433799317661800
60.2052	24.6522	Espoo	FI	Europe/Helsinki	863033069630348842
41.94175	123.50266	Hushitai	CN	Asia/Shanghai	359043379931766320
32.87533	71.57118	Daud Khel	PK	Asia/Karachi	3590433799317661792
-4.06667	37.73333	Same	TZ	Africa/Dar_es_Salaam	863033069630348669
53.59337	9.47629	Stade	DE	Europe/Berlin	863033069630348289
28.90054	-81.26367	Deltona	US	America/New_York	8630330696303481289
55.38752	36.73307	Naro-Fominsk	RU	Europe/Moscow	359043379931766668
16.455	120.5875	La Trinidad	PH	Asia/Manila	3590433799317661149
40.11583	67.84222	Jizzax	UZ	Asia/Samarkand	359043379931766304
51.21187	4.25633	Beveren	BE	Europe/Brussels	359043379931766056
42.28639	18.84	Budva	ME	Europe/Podgorica	3590433799317661339
42.30865	-83.48216	Canton	US	America/Detroit	863033069630348370
45.16024	-93.08883	Lino Lakes	US	America/Chicago	359043379931766189
49.13645	8.91229	Eppingen	DE	Europe/Berlin	3590433799317661073
26.32293	91.00632	Barpeta	IN	Asia/Kolkata	359043379931766114
35.815	139.6853	Shimotoda	JP	Asia/Tokyo	8630330696303481529
-34.28853	146.05093	Griffith	AU	Australia/Sydney	8630330696303481594
27.85	112.9	Xiangtan	CN	Asia/Shanghai	3590433799317661347
48.43174	17.8031	Hlohovec	SK	Europe/Bratislava	863033069630348057
34.9	137.5	Shinshiro	JP	Asia/Tokyo	3590433799317661123
37.30553	120.82747	Zhuangyuan	CN	Asia/Shanghai	3590433799317661016
45.53929	-122.38731	Troutdale	US	America/Los_Angeles	863033069630348123
10.7375	122.9666	Talisay	PH	Asia/Manila	8630330696303481362
41.50343	-74.01042	Newburgh	US	America/New_York	3590433799317661867
10.58806	77.24779	Udumalaippettai	IN	Asia/Kolkata	8630330696303482212
-22.92306	-53.13722	Loanda	BR	America/Sao_Paulo	8630330696303482097
53.16167	6.76111	Hoogezand	NL	Europe/Amsterdam	359043379931766957
53.83333	-2.98333	Poulton-le-Fylde	GB	Europe/London	359043379931766445
54.39635	24.04142	Alytus	LT	Europe/Vilnius	359043379931766015
44.89784	8.86374	Tortona	IT	Europe/Rome	863033069630348693
50.75932	25.34244	Lutsk	UA	Europe/Kyiv	863033069630348859
54.52156	9.5586	Schleswig	DE	Europe/Berlin	359043379931766726
50.80019	7.20769	Siegburg	DE	Europe/Berlin	359043379931766841
42.52787	-70.92866	Peabody	US	America/New_York	8630330696303481164
11.84962	-86.19903	Jinotepe	NI	America/Managua	863033069630348073
3.7278	98.6738	Labuhan Deli	ID	Asia/Jakarta	8630330696303481685
49.183239	15.454273	Telč	CZ	Europe/Prague	863033069630348750
40.2737	-76.88442	Harrisburg	US	America/New_York	3590433799317661750
-0.35817	42.54536	Kismayo	SO	Africa/Mogadishu	359043379931766874
35.88264	-80.08199	Thomasville	US	America/New_York	8630330696303481503
16.455	120.5875	La Trinidad	PH	Asia/Manila	3590433799317661750
51.12794	4.21372	Temse	BE	Europe/Brussels	3590433799317661644
34.75856	136.13108	Ueno-ebisumachi	JP	Asia/Tokyo	8630330696303482238
52.47774	10.5511	Gifhorn	DE	Europe/Berlin	359043379931766072
53.81667	-3.05	Blackpool	GB	Europe/London	8630330696303482212
37.19723	122.05228	Tianfu	CN	Asia/Shanghai	3590433799317661610
11.12018	76.11996	Manjeri	IN	Asia/Kolkata	863033069630348792
30.21121	74.4818	Malaut	IN	Asia/Kolkata	359043379931766577
7.57944	-8.53778	New Yekepa	LR	Africa/Monrovia	3590433799317662071
-0.71667	-48.52333	Soure	BR	America/Belem	863033069630348842
51.4781	57.3552	Kuvandyk	RU	Asia/Yekaterinburg	359043379931766171
42.24113	-88.3162	Crystal Lake	US	America/Chicago	8630330696303482006
48.78232	9.17702	Stuttgart	DE	Europe/Berlin	863033069630348545
33.43443	-5.22126	Azrou	MA	Africa/Casablanca	3590433799317661123
39.57582	-105.11221	Ken Caryl	US	America/Denver	8630330696303481875
55.85	37.56667	Likhobory	RU	Europe/Moscow	3590433799317661107
54.90083	38.07083	Stupino	RU	Europe/Moscow	8630330696303481610
-11.94306	-76.70944	Chosica	PE	America/Lima	863033069630348503
33.76446	-117.79394	North Tustin	US	America/Los_Angeles	359043379931766957
-3.14306	-58.44417	Itacoatiara	BR	America/Manaus	863033069630348339
3.02013	30.91105	Arua	UG	Africa/Kampala	8630330696303481768
36.91023	-121.75689	Watsonville	US	America/Los_Angeles	8630330696303481826
46.51872	86.00214	Hoxtolgay	CN	Asia/Urumqi	3590433799317661909
44.73941	-93.12577	Rosemount	US	America/Chicago	359043379931766296
35.64889	117.27583	Sishui	CN	Asia/Shanghai	359043379931766452
41.47892	-87.45476	Schererville	US	America/Chicago	3590433799317661537
3.31332	117.59152	Tarakan	ID	Asia/Makassar	3590433799317661628
6.25947	102.05461	Tak Bai	TH	Asia/Bangkok	359043379931766049
-3.74912	-73.25383	Iquitos	PE	America/Lima	3590433799317661172
36.19278	117.65694	Laiwu	CN	Asia/Shanghai	359043379931766676
24.96334	10.18003	Ghat	LY	Africa/Tripoli	359043379931766320
42.93369	-72.27814	Keene	US	America/New_York	863033069630348297
45.75279	130.57211	Boli	CN	Asia/Shanghai	3590433799317661420
24.41288	76.56719	Aklera	IN	Asia/Kolkata	8630330696303482071
39.32288	-76.72803	Woodlawn	US	America/New_York	3590433799317661503
40.53123	17.58522	Francavilla Fontana	IT	Europe/Rome	8630330696303482378
42.35843	-71.05977	Boston	US	America/New_York	863033069630348727
41.24264	16.50104	Bisceglie	IT	Europe/Rome	359043379931766395
40.72371	-73.95097	Greenpoint	US	America/New_York	3590433799317662212
47.05	15.46667	Sankt Peter	AT	Europe/Vienna	359043379931766015
35.85	117.7	Dongdu	CN	Asia/Shanghai	8630330696303481537
-33.88096	151.07986	Strathfield	AU	Australia/Sydney	3590433799317662196
39.71734	-74.96933	Sicklerville	US	America/New_York	8630330696303482139
7.6	4.18333	Olupona	NG	Africa/Lagos	8630330696303482295
39.71734	-74.96933	Sicklerville	US	America/New_York	8630330696303482261
7.57944	-8.53778	New Yekepa	LR	Africa/Monrovia	3590433799317661040
43.54072	-116.56346	Nampa	US	America/Boise	359043379931766239
-8.73508	24.99798	Kamina	CD	Africa/Lubumbashi	8630330696303481396
61.78491	34.34691	Petrozavodsk	RU	Europe/Moscow	8630330696303482279
40.85158	122.74754	Haicheng	CN	Asia/Shanghai	3590433799317661586
36.61954	4.08282	Beni Douala	DZ	Africa/Algiers	863033069630348792
22.10194	85.37752	Barbil	IN	Asia/Kolkata	359043379931766916
55.38752	36.73307	Naro-Fominsk	RU	Europe/Moscow	3590433799317661347
50.82882	-0.32247	Lancing	GB	Europe/London	359043379931766544
43.67681	4.63031	Arles	FR	Europe/Paris	359043379931766924
-17.83333	48.41667	Ambatondrazaka	MG	Indian/Antananarivo	3590433799317661131
-21.44345	-65.71875	Tupiza	BO	America/La_Paz	8630330696303481305
48.46458	9.22796	Pfullingen	DE	Europe/Berlin	3590433799317661487
17.54907	82.85749	Elamanchili	IN	Asia/Kolkata	359043379931766361
5.84752	-5.682	Lakota	CI	Africa/Abidjan	863033069630348883
31.76212	-95.63079	Palestine	US	America/Chicago	3590433799317661032
38.58894	-89.99038	Fairview Heights	US	America/Chicago	8630330696303482196
48.77275	5.16108	Bar-le-Duc	FR	Europe/Paris	359043379931766262
49.65186	26.97253	Krasyliv	UA	Europe/Kyiv	3590433799317662337
47.4943	-122.24092	Bryn Mawr-Skyway	US	America/Los_Angeles	8630330696303481362
47.46657	84.87144	Zaysan	KZ	Asia/Almaty	8630330696303482485
9.15093	-79.62098	Chilibre	PA	America/Panama	3590433799317662493
25.92493	73.66633	Sojat	IN	Asia/Kolkata	3590433799317662006
3.3285	99.1625	Tebingtinggi	ID	Asia/Jakarta	8630330696303481909
32.44874	-99.73314	Abilene	US	America/Chicago	3590433799317661875
-28.24	-48.67028	Imbituba	BR	America/Sao_Paulo	3590433799317662295
43.11667	1.6	Pamiers	FR	Europe/Paris	8630330696303481438
3.51667	11.5	Mbalmayo	CM	Africa/Douala	3590433799317661933
-7.0981	109.3243	Randudongkal	ID	Asia/Jakarta	359043379931766684
-34.74785	-58.70072	Pontevedra	AR	America/Argentina/Buenos_Aires	8630330696303482428
6.95194	121.96361	Recodo	PH	Asia/Manila	3590433799317661909
14.62578	121.12251	Antipolo	PH	Asia/Manila	8630330696303481008
1.6561	103.6032	Kulai	MY	Asia/Kuala_Lumpur	359043379931766254
48.43174	17.8031	Hlohovec	SK	Europe/Bratislava	3590433799317662139
40.60538	-73.75513	Far Rockaway	US	America/New_York	863033069630348180
-32.45242	-71.23106	La Ligua	CL	America/Santiago	3590433799317661750
55.64776	38.02486	Malakhovka	RU	Europe/Moscow	8630330696303482063
45.39402	9.29109	San Giuliano Milanese	IT	Europe/Rome	3590433799317662337
51.62907	-0.74934	High Wycombe	GB	Europe/London	3590433799317662428
10.31672	123.89071	Cebu City	PH	Asia/Manila	8630330696303482444
51.44889	5.51978	Tongelre	NL	Europe/Amsterdam	359043379931766882
42.4251	-71.06616	Malden	US	America/New_York	3590433799317661990
38.96667	-0.18333	Gandia	ES	Europe/Madrid	3590433799317661933
43.1122	12.38878	Perugia	IT	Europe/Rome	3590433799317662097
26.76628	83.36889	Gorakhpur	IN	Asia/Kolkata	3590433799317661131
22.19303	88.18466	Diamond Harbour	IN	Asia/Kolkata	359043379931766353
19.32932	-98.1664	Contla	MX	America/Mexico_City	8630330696303481008
22.10194	85.37752	Barbil	IN	Asia/Kolkata	8630330696303482428
51.65	-0.2	Barnet	GB	Europe/London	359043379931766619
48.79325	2.29275	Fontenay-aux-Roses	FR	Europe/Paris	359043379931766148
27.55898	68.21204	Larkana	PK	Asia/Karachi	3590433799317661222
-3.20333	-52.20639	Altamira	BR	America/Santarem	359043379931766205
-8.05389	-34.88111	Recife	BR	America/Recife	359043379931766064
9.58126	8.2926	Kafanchan	NG	Africa/Lagos	863033069630348362
42	21.32778	Saraj	MK	Europe/Skopje	8630330696303481651
0.03813	36.36339	Nyahururu	KE	Africa/Nairobi	3590433799317661701
12.12278	-61.62498	Grenville	GD	America/Grenada	3590433799317661362
43.67681	4.63031	Arles	FR	Europe/Paris	8630330696303481925
54.03876	43.91385	Kovylkino	RU	Europe/Moscow	359043379931766825
55.38752	36.73307	Naro-Fominsk	RU	Europe/Moscow	8630330696303481743
9.535	-13.68778	Camayenne	GN	Africa/Conakry	8630330696303481719
48.21644	9.02596	Albstadt	DE	Europe/Berlin	3590433799317661685
41.14676	-73.49484	New Canaan	US	America/New_York	3590433799317661545
60.97944	76.92421	Izluchinsk	RU	Asia/Yekaterinburg	863033069630348180
37.31065	13.57661	Agrigento	IT	Europe/Rome	359043379931766056
12.12278	-61.62498	Grenville	GD	America/Grenada	3590433799317662113
-20.87306	-48.29694	Viradouro	BR	America/Sao_Paulo	359043379931766452
51.26	-2.1875	Westbury	GB	Europe/London	863033069630348545
42.4251	-71.06616	Malden	US	America/New_York	8630330696303481057
-19.65	47.31667	Antanifotsy	MG	Indian/Antananarivo	359043379931766585
43.4125	23.225	Montana	BG	Europe/Sofia	8630330696303481875
51.08468	7.11393	Burscheid	DE	Europe/Berlin	359043379931766684
41.57439	24.71204	Smolyan	BG	Europe/Sofia	3590433799317661875
-3.14306	-58.44417	Itacoatiara	BR	America/Manaus	3590433799317661933
13.44581	101.18445	Phanat Nikhom	TH	Asia/Bangkok	359043379931766411
60.2052	24.6522	Espoo	FI	Europe/Helsinki	359043379931766015
29.38242	70.91106	Alipur	PK	Asia/Karachi	359043379931766114
54.03876	43.91385	Kovylkino	RU	Europe/Moscow	8630330696303482071
33.3213	130.94098	Hita	JP	Asia/Tokyo	3590433799317661446
51.14942	15.00835	Zgorzelec	PL	Europe/Warsaw	3590433799317662253
25.49043	85.94001	Teghra	IN	Asia/Kolkata	8630330696303481552
43.31667	-2.68333	Gernika-Lumo	ES	Europe/Madrid	863033069630348131
34.06635	-84.67837	Acworth	US	America/New_York	3590433799317661388
-4.42472	-41.45861	Pedro II	BR	America/Fortaleza	3590433799317661362
28.15112	-82.46148	Lutz	US	America/New_York	359043379931766866
18.20854	-71.10077	Santa Cruz de Barahona	DO	America/Santo_Domingo	8630330696303482345
43.1122	12.38878	Perugia	IT	Europe/Rome	3590433799317661792
43.82634	144.09638	Motomachi	JP	Asia/Tokyo	3590433799317662493
40.67705	-73.89125	Cypress Hills	US	America/New_York	3590433799317662352
52.31333	6.92917	Oldenzaal	NL	Europe/Amsterdam	8630330696303482097
27.92333	118.53333	Pucheng	CN	Asia/Shanghai	8630330696303481875
36.82167	128.63083	Eisen	KR	Asia/Seoul	359043379931766692
9.15093	-79.62098	Chilibre	PA	America/Panama	359043379931766999
38.07789	13.44275	Villabate	IT	Europe/Rome	3590433799317661156
9.6531	124.3697	Jagna	PH	Asia/Manila	863033069630348925
-37.9	145.18333	Wheelers Hill	AU	Australia/Melbourne	863033069630348891
50.7236	-3.52751	Exeter	GB	Europe/London	8630330696303481479
-10.91722	-37.65	Lagarto	BR	America/Maceio	3590433799317661743
31.39547	34.75699	Rahat	IL	Asia/Jerusalem	863033069630348925
26.44931	91.61356	Rangia	IN	Asia/Kolkata	3590433799317661933
41.24255	-82.61573	Norwalk	US	America/New_York	863033069630348453
37.49073	-2.77259	Baza	ES	Europe/Madrid	8630330696303482295
17.34769	78.55757	Lal Bahadur Nagar	IN	Asia/Kolkata	3590433799317662048
10.7375	122.9666	Talisay	PH	Asia/Manila	359043379931766304
47.38093	-122.23484	Kent	US	America/Los_Angeles	8630330696303481529
0.03813	36.36339	Nyahururu	KE	Africa/Nairobi	3590433799317661735
40.85158	122.74754	Haicheng	CN	Asia/Shanghai	3590433799317662485
10.66668	-61.51889	Port of Spain	TT	America/Port_of_Spain	3590433799317661529
42.7392	-84.62081	Waverly	US	America/Detroit	359043379931766197
41.75338	-86.11084	Granger	US	America/Indiana/Indianapolis	863033069630348891
48.78232	9.17702	Stuttgart	DE	Europe/Berlin	359043379931766445
56.03361	35.96944	Volokolamsk	RU	Europe/Moscow	863033069630348875
22.75218	72.68533	Kheda	IN	Asia/Kolkata	3590433799317662253
37.31065	13.57661	Agrigento	IT	Europe/Rome	359043379931766809
43.2907	5.4384	Marseille 11	FR	Europe/Paris	8630330696303482105
6.03333	37.55	Arba Minch	ET	Africa/Addis_Ababa	3590433799317661644
5.4709	100.24529	Batu Feringgi	MY	Asia/Kuala_Lumpur	863033069630348461
44.31771	9.32241	Chiavari	IT	Europe/Rome	863033069630348552
-27.76952	30.79165	Vryheid	ZA	Africa/Johannesburg	359043379931766932
56.85836	35.90057	Tver	RU	Europe/Moscow	8630330696303481545
41.72059	-87.70172	Evergreen Park	US	America/Chicago	359043379931766817
22.88783	84.13864	Jashpurnagar	IN	Asia/Kolkata	3590433799317662030
40.65538	-74.38987	Scotch Plains	US	America/New_York	3590433799317661917
47.05	15.46667	Sankt Peter	AT	Europe/Vienna	3590433799317661255
34.25628	-78.04471	Leland	US	America/New_York	8630330696303482311
-21.44236	27.46153	Tonota	BW	Africa/Gaborone	3590433799317661859
25.67927	-80.31727	Kendall	US	America/New_York	863033069630348941
65.84811	24.14662	Tornio	FI	Europe/Helsinki	8630330696303481537
45.53069	9.40531	Gorgonzola	IT	Europe/Rome	8630330696303481347
53.19146	-2.52398	Winsford	GB	Europe/London	8630330696303481149
15.72892	120.57224	Burgos	PH	Asia/Manila	863033069630348305
47.30997	8.52462	Adliswil	CH	Europe/Zurich	8630330696303482253
-15.675	-38.94722	Canavieiras	BR	America/Bahia	359043379931766817
21.34222	71.30633	Kundla	IN	Asia/Kolkata	8630330696303482246
30.46907	70.96699	Kot Addu	PK	Asia/Karachi	3590433799317661461
36.19278	117.65694	Laiwu	CN	Asia/Shanghai	3590433799317662188
40.60538	-73.75513	Far Rockaway	US	America/New_York	8630330696303482303
4.2475	9.00472	Idenao	CM	Africa/Douala	359043379931766106
41.94175	123.50266	Hushitai	CN	Asia/Shanghai	8630330696303481941
-22.53722	-42.98194	Guapimirim	BR	America/Sao_Paulo	3590433799317662493
43.1122	12.38878	Perugia	IT	Europe/Rome	359043379931766577
19.32889	-99.32556	San Lorenzo Acopilco	MX	America/Mexico_City	863033069630348057
42.30865	-83.48216	Canton	US	America/Detroit	8630330696303481073
-0.35817	42.54536	Kismayo	SO	Africa/Mogadishu	8630330696303481594
28.98002	77.70636	Meerut	IN	Asia/Kolkata	8630330696303482451
26.9423	68.11759	Tharu Shah	PK	Asia/Karachi	8630330696303481065
13.51825	99.95469	Damnoen Saduak	TH	Asia/Bangkok	3590433799317661784
46.32374	-120.00865	Sunnyside	US	America/Los_Angeles	3590433799317662451
38.54491	-121.74052	Davis	US	America/Los_Angeles	359043379931766841
48.77644	2.29026	Sceaux	FR	Europe/Paris	3590433799317662162
45.0408	-93.263	Columbia Heights	US	America/Chicago	8630330696303481396
40.42386	-3.53261	San Fernando de Henares	ES	Europe/Madrid	8630330696303482063
26.68451	-80.66756	Belle Glade	US	America/New_York	3590433799317662147
53.43333	-7.95	Athlone	IE	Europe/Dublin	3590433799317662345
34.95303	-120.43572	Santa Maria	US	America/Los_Angeles	359043379931766015
-22.53722	-42.98194	Guapimirim	BR	America/Sao_Paulo	863033069630348511
31.71667	73.38333	Sangla Hill	PK	Asia/Karachi	3590433799317662303
17.34769	78.55757	Lal Bahadur Nagar	IN	Asia/Kolkata	8630330696303481891
-33.75881	150.99292	Baulkham Hills	AU	Australia/Sydney	863033069630348446
51.24197	4.82313	Lille	BE	Europe/Brussels	863033069630348701
42.06166	-1.60452	Tudela	ES	Europe/Madrid	8630330696303481990
36.64852	51.49621	Nowshahr	IR	Asia/Tehran	8630330696303482196
29.38242	70.91106	Alipur	PK	Asia/Karachi	3590433799317661776
49.820923	18.262524	Ostrava	CZ	Europe/Prague	359043379931766494
36.27462	4.85668	Bordj Zemoura	DZ	Africa/Algiers	3590433799317661180
30.17746	-81.38758	Palm Valley	US	America/New_York	359043379931766627
37.73222	115.70111	Hengshui	CN	Asia/Shanghai	8630330696303482097
31.76212	-95.63079	Palestine	US	America/Chicago	3590433799317661594
-34.74785	-58.70072	Pontevedra	AR	America/Argentina/Buenos_Aires	359043379931766973
55.75556	60.70278	Ozersk	RU	Asia/Yekaterinburg	3590433799317661719
38.38479	-0.76773	Novelda	ES	Europe/Madrid	359043379931766510
-22.53722	-42.98194	Guapimirim	BR	America/Sao_Paulo	8630330696303481826
17.94979	-94.91386	Acayucan	MX	America/Mexico_City	8630330696303481842
44.99012	-123.02621	Keizer	US	America/Los_Angeles	8630330696303481818
6.03333	37.55	Arba Minch	ET	Africa/Addis_Ababa	8630330696303481693
22.88783	84.13864	Jashpurnagar	IN	Asia/Kolkata	359043379931766833
42.8139	-1.64295	Segundo Ensanche	ES	Europe/Madrid	3590433799317662089
44.98901	38.94324	Yablonovskiy	RU	Europe/Moscow	8630330696303481933
30.75545	20.22625	Ajdabiya	LY	Africa/Tripoli	359043379931766007
41.55838	-81.56929	Collinwood	US	America/New_York	8630330696303481800
33.35283	-111.78903	Gilbert	US	America/Phoenix	3590433799317662162
-10.91111	-37.07167	Aracaju	BR	America/Maceio	3590433799317661578
-11.48472	-37.93278	Rio Real	BR	America/Bahia	8630330696303481230
40.78206	72.34424	Andijon	UZ	Asia/Tashkent	3590433799317661487
23.0072	-82.4017	Boyeros	CU	America/Havana	359043379931766841
54.84444	38.16694	Kashira	RU	Europe/Moscow	8630330696303481818
54.39304	53.26023	Bavly	RU	Europe/Moscow	8630330696303481842
45.44694	8.62118	Novara	IT	Europe/Rome	3590433799317661669
56.56317	-2.58736	Arbroath	GB	Europe/London	863033069630348156
42.52787	-70.92866	Peabody	US	America/New_York	863033069630348370
35.74788	-95.36969	Muskogee	US	America/Chicago	3590433799317661461
32.42067	-104.22884	Carlsbad	US	America/Denver	863033069630348867
57.30185	39.85331	Gavrilov-Yam	RU	Europe/Moscow	863033069630348644
25.75728	75.37991	Deoli	IN	Asia/Kolkata	3590433799317661438
48.90472	2.2469	La Garenne-Colombes	FR	Europe/Paris	863033069630348727
27.0174	49.62251	Al Jubayl	SA	Asia/Riyadh	359043379931766007
43.31667	-2.68333	Gernika-Lumo	ES	Europe/Madrid	8630330696303481966
30.21121	74.4818	Malaut	IN	Asia/Kolkata	8630330696303481941
41.84364	-87.71255	South Lawndale	US	America/Chicago	863033069630348867
4.73245	-74.26419	Madrid	CO	America/Bogota	359043379931766734
51.65	-0.2	Barnet	GB	Europe/London	8630330696303481743
35.88264	-80.08199	Thomasville	US	America/New_York	8630330696303481107
51.19139	6.51352	Korschenbroich	DE	Europe/Berlin	863033069630348669
39.00622	-77.4286	Sterling	US	America/New_York	3590433799317661735
-27.76952	30.79165	Vryheid	ZA	Africa/Johannesburg	359043379931766155
13.73417	-89.71472	Sonzacate	SV	America/El_Salvador	359043379931766288
16.0438	120.4861	Manaoag	PH	Asia/Manila	3590433799317662345
40.24537	-75.64963	Pottstown	US	America/New_York	3590433799317661016
43.54072	-116.56346	Nampa	US	America/Boise	863033069630348495
38.07789	13.44275	Villabate	IT	Europe/Rome	3590433799317661966
51.82721	107.60627	Ulan-Ude	RU	Asia/Irkutsk	359043379931766833
-26.22861	-52.67056	Pato Branco	BR	America/Sao_Paulo	359043379931766460
42.52787	-70.92866	Peabody	US	America/New_York	3590433799317661917
43.96222	43.63417	Novopavlovsk	RU	Europe/Moscow	359043379931766577
10.58806	77.24779	Udumalaippettai	IN	Asia/Kolkata	359043379931766551
5.27247	-3.59625	Bonoua	CI	Africa/Abidjan	8630330696303481826
5.30383	-1.98956	Tarkwa	GH	Africa/Accra	8630330696303482048
38.96372	-76.99081	Chillum	US	America/New_York	3590433799317661594
34.63915	-120.45794	Lompoc	US	America/Los_Angeles	359043379931766981
36.65	138.31667	Suzaka	JP	Asia/Tokyo	863033069630348701
52.53048	13.29371	Charlottenburg-Nord	DE	Europe/Berlin	8630330696303482089
50.74497	3.20639	Mouscron	BE	Europe/Brussels	8630330696303481016
23.29549	113.82465	Licheng	CN	Asia/Shanghai	8630330696303482394
-7.73379	113.69785	Besuki	ID	Asia/Jakarta	863033069630348107
10.10649	76.35484	Alwaye	IN	Asia/Kolkata	8630330696303481586
10.10649	76.35484	Alwaye	IN	Asia/Kolkata	3590433799317661578
-7.0981	109.3243	Randudongkal	ID	Asia/Jakarta	3590433799317661453
35.72917	10.58082	Msaken	TN	Africa/Tunis	359043379931766767
14.95472	120.89694	Baliuag	PH	Asia/Manila	359043379931766031
31.39547	34.75699	Rahat	IL	Asia/Jerusalem	863033069630348313
29.84576	-90.10674	Estelle	US	America/Chicago	359043379931766353
48.975658	14.480255	České Budějovice	CZ	Europe/Prague	3590433799317661735
44.89784	8.86374	Tortona	IT	Europe/Rome	359043379931766981
37.35813	-6.03731	San Juan de Aznalfarache	ES	Europe/Madrid	863033069630348222
37.95143	-91.77127	Rolla	US	America/Chicago	8630330696303482469
46.75451	33.34864	Nova Kakhovka	UA	Europe/Kyiv	3590433799317661669
52.71083	5.74861	Emmeloord	NL	Europe/Amsterdam	3590433799317661685
38.37255	34.02537	Aksaray	TR	Europe/Istanbul	3590433799317662485
32.61603	44.02488	Karbala	IQ	Asia/Baghdad	8630330696303481826
-8.76194	-63.90389	Porto Velho	BR	America/Porto_Velho	8630330696303481511
34.14251	-118.25508	Glendale	US	America/Los_Angeles	359043379931766437
32.52515	-93.75018	Shreveport	US	America/Chicago	863033069630348511
40.63316	-74.13653	Port Richmond	US	America/New_York	3590433799317661339
5.20856	-74.73584	Honda	CO	America/Bogota	359043379931766262
23.1959	86.51499	Kenda	IN	Asia/Kolkata	3590433799317661305
-33.59217	-70.6996	San Bernardo	CL	America/Santiago	8630330696303481305
42	21.32778	Saraj	MK	Europe/Skopje	8630330696303481974
17.34769	78.55757	Lal Bahadur Nagar	IN	Asia/Kolkata	8630330696303482170
38.58894	-89.99038	Fairview Heights	US	America/Chicago	863033069630348644
41.55838	-81.56929	Collinwood	US	America/New_York	3590433799317661388
26.2173	-80.22588	North Lauderdale	US	America/New_York	8630330696303481818
40.63316	-74.13653	Port Richmond	US	America/New_York	359043379931766221
11.50526	77.23826	Sathyamangalam	IN	Asia/Kolkata	3590433799317661602
14.66	120.56528	Pilar	PH	Asia/Manila	359043379931766387
53.46506	-1.47217	Chapletown	GB	Europe/London	8630330696303481479
55.64776	38.02486	Malakhovka	RU	Europe/Moscow	3590433799317662337
-8.05389	-34.88111	Recife	BR	America/Recife	3590433799317661198
38.91817	-78.19444	Front Royal	US	America/New_York	8630330696303481891
15.46063	99.89166	Thap Than	TH	Asia/Bangkok	359043379931766064
7.57944	-8.53778	New Yekepa	LR	Africa/Monrovia	359043379931766510
16.68911	98.50893	Myawadi	MM	Asia/Yangon	863033069630348792
53.14657	140.72287	Nikolayevsk-on-Amure	RU	Asia/Vladivostok	863033069630348222
7.83389	-72.47417	Villa del Rosario	CO	America/Bogota	3590433799317661461
43.61062	-72.97261	Rutland	US	America/New_York	8630330696303481024
29.21399	78.95693	Kashipur	IN	Asia/Kolkata	359043379931766478
29.38242	70.91106	Alipur	PK	Asia/Karachi	8630330696303481677
12.74482	4.52514	Argungu	NG	Africa/Lagos	8630330696303481180
31.92923	34.86563	Ramla	IL	Asia/Jerusalem	863033069630348115
21.28306	-89.66123	Progreso	MX	America/Merida	8630330696303481370
6.15038	6.83042	Nkpor	NG	Africa/Lagos	3590433799317661222
30.81383	75.16878	Moga	IN	Asia/Kolkata	863033069630348040
34.61667	135.6	Yao	JP	Asia/Tokyo	3590433799317661388
40.53123	17.58522	Francavilla Fontana	IT	Europe/Rome	8630330696303481008
36.33011	138.89585	Annaka	JP	Asia/Tokyo	359043379931766122
-4.42472	-41.45861	Pedro II	BR	America/Fortaleza	3590433799317661149
23.1959	86.51499	Kenda	IN	Asia/Kolkata	3590433799317662188
39.71734	-74.96933	Sicklerville	US	America/New_York	863033069630348792
36.72544	3.55665	Thenia	DZ	Africa/Algiers	3590433799317661370
50.598427	13.610242	Litvínov	CZ	Europe/Prague	863033069630348305
33.35283	-111.78903	Gilbert	US	America/Phoenix	8630330696303481701
-5.41667	38.01667	Chanika	TZ	Africa/Dar_es_Salaam	8630330696303481867
33.45122	-86.99666	Hueytown	US	America/Chicago	863033069630348248
33.95015	-118.03917	South Whittier	US	America/Los_Angeles	863033069630348768
13.8196	100.04427	Nakhon Pathom	TH	Asia/Bangkok	3590433799317661214
10.22677	-67.33122	La Victoria	VE	America/Caracas	359043379931766395
-10.33333	39.28333	Nyangao	TZ	Africa/Dar_es_Salaam	359043379931766999
50.75	2.25	Saint-Omer	FR	Europe/Paris	359043379931766882
46.09273	-88.64235	Iron River	US	America/Menominee	863033069630348263
-33.75881	150.99292	Baulkham Hills	AU	Australia/Sydney	8630330696303481511
-33.79176	151.08057	Eastwood	AU	Australia/Sydney	8630330696303481156
21.28306	-89.66123	Progreso	MX	America/Merida	863033069630348131
15.73628	75.96976	Gajendragarh	IN	Asia/Kolkata	359043379931766197
34.8825	128.62667	Sinhyeon	KR	Asia/Seoul	359043379931766312
51.955	5.22778	Culemborg	NL	Europe/Amsterdam	8630330696303481586
51.21187	4.25633	Beveren	BE	Europe/Brussels	863033069630348453
23.73333	114.68333	Heyuan	CN	Asia/Shanghai	863033069630348420
49.65186	26.97253	Krasyliv	UA	Europe/Kyiv	359043379931766510
20.88098	75.11937	Parola	IN	Asia/Kolkata	359043379931766361
36.19278	117.65694	Laiwu	CN	Asia/Shanghai	8630330696303481156
20.88098	75.11937	Parola	IN	Asia/Kolkata	3590433799317661248
30.29184	71.67164	Qadirpur Ran	PK	Asia/Karachi	8630330696303481669
48.90982	2.45012	Bobigny	FR	Europe/Paris	863033069630348438
40.68066	-73.47429	Massapequa	US	America/New_York	3590433799317662287
32.87533	71.57118	Daud Khel	PK	Asia/Karachi	3590433799317662105
50.79205	-1.08593	Southsea	GB	Europe/London	3590433799317662329
3.31332	117.59152	Tarakan	ID	Asia/Makassar	8630330696303481602
16.455	120.5875	La Trinidad	PH	Asia/Manila	3590433799317662279
-2.68333	33	Usagara	TZ	Africa/Dar_es_Salaam	8630330696303481800
50.23271	12.87117	Karlovy Vary	CZ	Europe/Prague	863033069630348503
25.87972	-97.50417	Heroica Matamoros	MX	America/Matamoros	3590433799317661230
7.57944	-8.53778	New Yekepa	LR	Africa/Monrovia	359043379931766692
39.32011	-76.51552	Rosedale	US	America/New_York	8630330696303481834
45.44868	-73.81669	Pointe-Claire	CA	America/Toronto	3590433799317661081
33.72255	-116.37697	Palm Desert	US	America/Los_Angeles	8630330696303482139
8.88649	2.59753	Tchaourou	BJ	Africa/Porto-Novo	359043379931766114
29.69221	72.54566	Hasilpur	PK	Asia/Karachi	3590433799317661693
45.79377	8.88104	Malnate	IT	Europe/Rome	359043379931766239
42.52787	-70.92866	Peabody	US	America/New_York	863033069630348065
43.11667	1.6	Pamiers	FR	Europe/Paris	3590433799317661248
5.84752	-5.682	Lakota	CI	Africa/Abidjan	359043379931766593
-2.68333	33	Usagara	TZ	Africa/Dar_es_Salaam	3590433799317662071
41.75338	-86.11084	Granger	US	America/Indiana/Indianapolis	863033069630348347
33.43443	-5.22126	Azrou	MA	Africa/Casablanca	359043379931766932
41.94175	123.50266	Hushitai	CN	Asia/Shanghai	359043379931766270
65.84811	24.14662	Tornio	FI	Europe/Helsinki	3590433799317662139
55.1904	30.2049	Vitebsk	BY	Europe/Minsk	863033069630348529
49.952431	15.268654	Kutná Hora	CZ	Europe/Prague	3590433799317662154
-7.76667	35.7	Iringa	TZ	Africa/Dar_es_Salaam	863033069630348016
55.25	24.75	Ukmerge	LT	Europe/Vilnius	863033069630348727
34.25628	-78.04471	Leland	US	America/New_York	3590433799317661560
2.2139	102.3278	Kampung Ayer Molek	MY	Asia/Kuala_Lumpur	359043379931766775
17.54907	82.85749	Elamanchili	IN	Asia/Kolkata	863033069630348586
16.0438	120.4861	Manaoag	PH	Asia/Manila	863033069630348321
36.82167	128.63083	Eisen	KR	Asia/Seoul	863033069630348982
12.74482	4.52514	Argungu	NG	Africa/Lagos	863033069630348859
35.72917	10.58082	Msaken	TN	Africa/Tunis	3590433799317662030
19.30157	72.85107	Bhayandar	IN	Asia/Kolkata	863033069630348081
-22.97056	-46.99583	Valinhos	BR	America/Sao_Paulo	3590433799317661719
41.8542	-87.66561	Lower West Side	US	America/Chicago	8630330696303481750
53.30972	83.62389	Novosilikatnyy	RU	Asia/Barnaul	3590433799317662295
-7.76667	35.7	Iringa	TZ	Africa/Dar_es_Salaam	863033069630348412
42.64685	-5.55835	Villaquilambre	ES	Europe/Madrid	3590433799317661396
45.79377	8.88104	Malnate	IT	Europe/Rome	3590433799317661370
-33.88096	151.07986	Strathfield	AU	Australia/Sydney	3590433799317662238
38.91817	-78.19444	Front Royal	US	America/New_York	3590433799317661933
14.37395	100.48528	Bang Ban	TH	Asia/Bangkok	863033069630348784
53.53395	33.72798	Zhukovka	RU	Europe/Moscow	8630330696303481180
32.55531	76.12647	Chamba	IN	Asia/Kolkata	3590433799317661362
39.08367	-84.50855	Covington	US	America/New_York	3590433799317661222
55.64776	38.02486	Malakhovka	RU	Europe/Moscow	863033069630348909
-24.19436	29.00974	Mokopane	ZA	Africa/Johannesburg	8630330696303481271
42.52787	-70.92866	Peabody	US	America/New_York	359043379931766122
-6.8048	110.8405	Kudus	ID	Asia/Jakarta	3590433799317662311
41.9001	-71.08977	Taunton	US	America/New_York	8630330696303481057
53.95278	32.86389	Roslavl‚Äô	RU	Europe/Moscow	863033069630348768
-15.21194	-75.11028	Minas de Marcona	PE	America/Lima	359043379931766668
29.22254	79.5286	Haldwani	IN	Asia/Kolkata	8630330696303481701
40.92298	14.30935	Afragola	IT	Europe/Rome	359043379931766874
29.21399	78.95693	Kashipur	IN	Asia/Kolkata	359043379931766726
27.55898	68.21204	Larkana	PK	Asia/Karachi	359043379931766551
51.12794	4.21372	Temse	BE	Europe/Brussels	3590433799317662121
12.74409	-8.07257	Kati	ML	Africa/Bamako	863033069630348776
41.72059	-87.70172	Evergreen Park	US	America/Chicago	3590433799317661453
35.61452	-88.81395	Jackson	US	America/Chicago	8630330696303481818
44.31771	9.32241	Chiavari	IT	Europe/Rome	359043379931766767
11.84962	-86.19903	Jinotepe	NI	America/Managua	863033069630348735
-8.66667	-35.71667	Catende	BR	America/Recife	8630330696303481016
48.28259	9.72749	Ehingen	DE	Europe/Berlin	3590433799317661511
40.70995	0.57856	Amposta	ES	Europe/Madrid	863033069630348081
36.76775	2.95924	Cheraga	DZ	Africa/Algiers	863033069630348990
51.82721	107.60627	Ulan-Ude	RU	Asia/Irkutsk	8630330696303481685
-19.65	47.31667	Antanifotsy	MG	Indian/Antananarivo	8630330696303481792
38.58894	-89.99038	Fairview Heights	US	America/Chicago	863033069630348412
43.62558	13.39954	Falconara Marittima	IT	Europe/Rome	863033069630348834
-4.24444	-42.29444	Barras	BR	America/Fortaleza	863033069630348651
-10.91111	-37.07167	Aracaju	BR	America/Maceio	8630330696303481776
50.23805	8.86704	Nidderau	DE	Europe/Berlin	863033069630348586
53.81667	-3.05	Blackpool	GB	Europe/London	359043379931766650
32.9156	-117.14392	Mira Mesa	US	America/Los_Angeles	359043379931766361
22.49396	-105.36369	Acaponeta	MX	America/Mazatlan	3590433799317662238
53.63333	9.85	Halstenbek	DE	Europe/Berlin	8630330696303481685
45.39402	9.29109	San Giuliano Milanese	IT	Europe/Rome	359043379931766213
-1.26753	116.82887	Balikpapan	ID	Asia/Makassar	3590433799317661271
40.5576	-74.28459	Woodbridge	US	America/New_York	863033069630348602
53.81667	-3.05	Blackpool	GB	Europe/London	8630330696303481149
48.90472	2.2469	La Garenne-Colombes	FR	Europe/Paris	3590433799317662477
-3.14306	-58.44417	Itacoatiara	BR	America/Manaus	3590433799317661677
1.6	103.81667	Ulu Tiram	MY	Asia/Kuala_Lumpur	3590433799317661016
68.79833	16.54165	Harstad	NO	Europe/Oslo	3590433799317661636
23.9028	89.11943	Kushtia	BD	Asia/Dhaka	3590433799317661222
32.61603	44.02488	Karbala	IQ	Asia/Baghdad	8630330696303481255
23.04419	-82.00919	Jaruco	CU	America/Havana	8630330696303481149
34.95303	-120.43572	Santa Maria	US	America/Los_Angeles	8630330696303481263
38.06084	-97.92977	Hutchinson	US	America/Chicago	3590433799317662055
34.25	135.31667	Iwade	JP	Asia/Tokyo	359043379931766874
40.65995	-111.99633	Kearns	US	America/Denver	863033069630348867
5.90702	116.10146	Donggongon	MY	Asia/Kuching	3590433799317661008
64.5635	39.8302	Severodvinsk	RU	Europe/Moscow	359043379931766163
12.95629	78.27539	Robertsonpet	IN	Asia/Kolkata	3590433799317661529
-10.95817	-38.79084	Tucano	BR	America/Bahia	8630330696303481263
-27.50578	153.10236	Carindale	AU	Australia/Brisbane	359043379931766635
18.42745	-67.15407	Aguadilla	PR	America/Puerto_Rico	3590433799317661180
25.13915	73.06784	Sheoganj	IN	Asia/Kolkata	359043379931766577
36.65	138.31667	Suzaka	JP	Asia/Tokyo	359043379931766353
41.84364	-87.71255	South Lawndale	US	America/Chicago	3590433799317661388
31.78336	35.23388	East Jerusalem	PS	Asia/Hebron	863033069630348933
25.92127	86.79271	Madhipura	IN	Asia/Kolkata	863033069630348925
-23.85972	35.34722	Maxixe	MZ	Africa/Maputo	3590433799317662204
23.0072	-82.4017	Boyeros	CU	America/Havana	3590433799317662378
-7.81667	112.01667	Kediri	ID	Asia/Jakarta	3590433799317662048
45.78071	12.84052	Portogruaro	IT	Europe/Rome	8630330696303482204
53.16167	6.76111	Hoogezand	NL	Europe/Amsterdam	8630330696303482022
12.95629	78.27539	Robertsonpet	IN	Asia/Kolkata	3590433799317661578
36.92574	14.72443	Ragusa	IT	Europe/Rome	359043379931766148
-34.88422	150.60036	Nowra	AU	Australia/Sydney	8630330696303482147
45.43341	-73.86586	Beaconsfield	CA	America/Toronto	359043379931766437
41.55815	-73.0515	Waterbury	US	America/New_York	359043379931766098
32.17629	75.06583	Fazilpur	PK	Asia/Karachi	8630330696303481784
-1.63333	13.58357	Franceville	GA	Africa/Libreville	8630330696303481685
41.27194	123.17306	Liaoyang	CN	Asia/Shanghai	359043379931766734
8.88649	2.59753	Tchaourou	BJ	Africa/Porto-Novo	8630330696303481420
54.90083	38.07083	Stupino	RU	Europe/Moscow	3590433799317662105
25.87498	86.59611	Saharsa	IN	Asia/Kolkata	8630330696303481461
43.71032	-1.05366	Dax	FR	Europe/Paris	3590433799317662287
55.54028	89.20083	Sharypovo	RU	Asia/Krasnoyarsk	8630330696303481255
26.76628	83.36889	Gorakhpur	IN	Asia/Kolkata	8630330696303481677
50.26729	-119.27337	Vernon	CA	America/Vancouver	3590433799317661974
23.1959	86.51499	Kenda	IN	Asia/Kolkata	8630330696303481057
3.7278	98.6738	Labuhan Deli	ID	Asia/Jakarta	8630330696303482444
-15.21194	-75.11028	Minas de Marcona	PE	America/Lima	359043379931766353
45.53069	9.40531	Gorgonzola	IT	Europe/Rome	3590433799317662444
43.41949	77.0202	Otegen Batyra	KZ	Asia/Almaty	359043379931766411
52.86147	9.5926	Walsrode	DE	Europe/Berlin	359043379931766197
6.84019	79.87116	Dehiwala-Mount Lavinia	LK	Asia/Colombo	3590433799317661834
41.16704	-73.20483	Bridgeport	US	America/New_York	8630330696303481057
-10.95817	-38.79084	Tucano	BR	America/Bahia	863033069630348537
52.4581	13.28702	Dahlem	DE	Europe/Berlin	8630330696303481826
51.84819	1.26738	Walton-on-the-Naze	GB	Europe/London	863033069630348719
33.3213	130.94098	Hita	JP	Asia/Tokyo	8630330696303481677
6.33444	124.95278	Tupi	PH	Asia/Manila	359043379931766064
33.54428	-84.23381	Stockbridge	US	America/New_York	3590433799317661552
40.56754	-89.64066	Pekin	US	America/Chicago	8630330696303481792
35.85	117.7	Dongdu	CN	Asia/Shanghai	359043379931766148
51.62907	-0.74934	High Wycombe	GB	Europe/London	3590433799317661578
-4.5833	15.16554	Kasangulu	CD	Africa/Kinshasa	863033069630348677
28.71271	77.656	Pilkhua	IN	Asia/Kolkata	3590433799317662147
34.8825	128.62667	Sinhyeon	KR	Asia/Seoul	8630330696303481164
51.4781	57.3552	Kuvandyk	RU	Asia/Yekaterinburg	359043379931766106
44.31771	9.32241	Chiavari	IT	Europe/Rome	3590433799317661420
-8.28333	-35.03333	Cabo	BR	America/Recife	863033069630348396
3.51667	11.5	Mbalmayo	CM	Africa/Douala	3590433799317661511
52.57583	6.61944	Hardenberg	NL	Europe/Amsterdam	3590433799317661354
48.77644	2.29026	Sceaux	FR	Europe/Paris	3590433799317661123
33.45122	-86.99666	Hueytown	US	America/Chicago	3590433799317662279
39.96097	-75.60804	West Chester	US	America/New_York	8630330696303482261
-19.72806	-50.19556	Iturama	BR	America/Sao_Paulo	8630330696303481362
33.76446	-117.79394	North Tustin	US	America/Los_Angeles	3590433799317662170
-38.65333	178.00417	Gisborne	NZ	Pacific/Auckland	3590433799317661479
44.27804	-88.27205	Kaukauna	US	America/Chicago	3590433799317661396
49.952431	15.268654	Kutná Hora	CZ	Europe/Prague	8630330696303481677
8.88988	-79.62603	Veracruz	PA	America/Panama	359043379931766890
53.83333	-2.98333	Poulton-le-Fylde	GB	Europe/London	8630330696303481610
43.4125	23.225	Montana	BG	Europe/Sofia	863033069630348685
33.44872	-86.78777	Vestavia Hills	US	America/Chicago	359043379931766296
39.71734	-74.96933	Sicklerville	US	America/New_York	359043379931766338
-28.24	-48.67028	Imbituba	BR	America/Sao_Paulo	863033069630348677
52.26083	7.00417	Losser	NL	Europe/Amsterdam	3590433799317661818
40.11583	67.84222	Jizzax	UZ	Asia/Samarkand	863033069630348651
51.88333	8.51667	Verl	DE	Europe/Berlin	3590433799317661370
34.85	117.33333	Taozhuang	CN	Asia/Shanghai	8630330696303482428
-8.66667	-35.71667	Catende	BR	America/Recife	8630330696303481636
30.81383	75.16878	Moga	IN	Asia/Kolkata	8630330696303481354
36.75965	137.36215	Namerikawa	JP	Asia/Tokyo	3590433799317662055
30.75545	20.22625	Ajdabiya	LY	Africa/Tripoli	863033069630348941
35.89972	14.51472	Valletta	MT	Europe/Malta	359043379931766288
51.38673	0.30367	Hartley	GB	Europe/London	8630330696303481289
40.94065	-73.99681	Dumont	US	America/New_York	863033069630348941
35.6803	51.0193	Shahre Jadide Andisheh	IR	Asia/Tehran	863033069630348198
-8.05389	-34.88111	Recife	BR	America/Recife	359043379931766536
51.21187	4.25633	Beveren	BE	Europe/Brussels	8630330696303481545
51.39323	0.47713	Strood	GB	Europe/London	3590433799317662014
58.7002	59.4839	Kachkanar	RU	Asia/Yekaterinburg	8630330696303481933
45.4473	-73.75335	Dorval	CA	America/Toronto	359043379931766312
43.67681	4.63031	Arles	FR	Europe/Paris	359043379931766379
61.78491	34.34691	Petrozavodsk	RU	Europe/Moscow	8630330696303482196
48.98693	2.44892	Gonesse	FR	Europe/Paris	359043379931766569
51.84819	1.26738	Walton-on-the-Naze	GB	Europe/London	3590433799317661065
41.55815	-73.0515	Waterbury	US	America/New_York	359043379931766973
-21.44345	-65.71875	Tupiza	BO	America/La_Paz	3590433799317661883
40.67705	-73.89125	Cypress Hills	US	America/New_York	863033069630348859
53.94313	10.30215	Bad Segeberg	DE	Europe/Berlin	3590433799317661586
33.54428	-84.23381	Stockbridge	US	America/New_York	3590433799317661370
14.62072	74.83554	Sirsi	IN	Asia/Kolkata	8630330696303481933
43.61058	1.33467	Colomiers	FR	Europe/Paris	8630330696303481768
20.88098	75.11937	Parola	IN	Asia/Kolkata	359043379931766114
54.84444	38.16694	Kashira	RU	Europe/Moscow	8630330696303481214
43.1122	12.38878	Perugia	IT	Europe/Rome	863033069630348727
41.57439	24.71204	Smolyan	BG	Europe/Sofia	3590433799317662394
3.31332	117.59152	Tarakan	ID	Asia/Makassar	359043379931766411
45.4473	-73.75335	Dorval	CA	America/Toronto	8630330696303481891
1.6561	103.6032	Kulai	MY	Asia/Kuala_Lumpur	3590433799317661594
32.87533	71.57118	Daud Khel	PK	Asia/Karachi	3590433799317661065
48.8765	2.18967	Rueil-Malmaison	FR	Europe/Paris	863033069630348727
-3.20333	-52.20639	Altamira	BR	America/Santarem	3590433799317662311
5.4709	100.24529	Batu Feringgi	MY	Asia/Kuala_Lumpur	8630330696303482295
35.21222	2.31889	Ksar Chellala	DZ	Africa/Algiers	359043379931766486
51.67822	33.9162	Hlukhiv	UA	Europe/Kyiv	3590433799317661123
48.07667	8.64409	Trossingen	DE	Europe/Berlin	359043379931766676
43.62558	13.39954	Falconara Marittima	IT	Europe/Rome	8630330696303481545
19.32889	-99.32556	San Lorenzo Acopilco	MX	America/Mexico_City	8630330696303482006
59.37722	28.19028	Narva	EE	Europe/Tallinn	3590433799317662386
34.06635	-84.67837	Acworth	US	America/New_York	863033069630348438
41.50343	-74.01042	Newburgh	US	America/New_York	8630330696303481941
14.62072	74.83554	Sirsi	IN	Asia/Kolkata	863033069630348982
-10.33333	39.28333	Nyangao	TZ	Africa/Dar_es_Salaam	863033069630348214
51.40148	-1.32471	Newbury	GB	Europe/London	359043379931766718
39.09112	-94.41551	Independence	US	America/Chicago	3590433799317662253
41.24264	16.50104	Bisceglie	IT	Europe/Rome	3590433799317662030
34.06635	-84.67837	Acworth	US	America/New_York	8630330696303481891
27.76056	-15.58602	Maspalomas	ES	Atlantic/Canary	359043379931766387
41.41204	2.18247	el Camp de l'Arpa del Clot	ES	Europe/Madrid	3590433799317662345
36.81667	117.81667	Zhoucun	CN	Asia/Shanghai	3590433799317661446
20.21322	-100.88023	Salvatierra	MX	America/Mexico_City	359043379931766288
40.87329	14.43865	Somma Vesuviana	IT	Europe/Rome	3590433799317662444
50.74497	3.20639	Mouscron	BE	Europe/Brussels	863033069630348529
52.26083	7.00417	Losser	NL	Europe/Amsterdam	3590433799317661347
53.14657	140.72287	Nikolayevsk-on-Amure	RU	Asia/Vladivostok	3590433799317661008
33.98154	-81.23621	Lexington	US	America/New_York	359043379931766403
-6.8048	110.8405	Kudus	ID	Asia/Jakarta	8630330696303481412
43.67681	4.63031	Arles	FR	Europe/Paris	3590433799317661271
-6.8	39.25	Magomeni	TZ	Africa/Dar_es_Salaam	3590433799317661461
40.85158	122.74754	Haicheng	CN	Asia/Shanghai	359043379931766395
-11.94306	-76.70944	Chosica	PE	America/Lima	863033069630348990
50.50301	13.63617	Most	CZ	Europe/Prague	863033069630348511
16.06213	76.0586	Hungund	IN	Asia/Kolkata	8630330696303481792
47.83333	59.6	Shalqar	KZ	Asia/Aqtobe	8630330696303481156
13.8196	100.04427	Nakhon Pathom	TH	Asia/Bangkok	359043379931766270
48.98693	2.44892	Gonesse	FR	Europe/Paris	3590433799317661461
30.24706	115.04814	Huangshi	CN	Asia/Shanghai	8630330696303481388
37.51803	15.00913	Misterbianco	IT	Europe/Rome	3590433799317661750
39.32011	-76.51552	Rosedale	US	America/New_York	3590433799317662394
41.09822	120.74792	Nanpiao	CN	Asia/Shanghai	863033069630348446
51.168	7.973	Finnentrop	DE	Europe/Berlin	359043379931766338
-4.83	29.65806	Mwandiga	TZ	Africa/Dar_es_Salaam	863033069630348537
49.03685	8.70745	Bretten	DE	Europe/Berlin	8630330696303482469
40.37528	28.88222	Mudanya	TR	Europe/Istanbul	863033069630348362
59.80917	30.38167	Shushary	RU	Europe/Moscow	3590433799317661891
-6.8	39.25	Magomeni	TZ	Africa/Dar_es_Salaam	8630330696303482089
19.21667	73.08333	Dombivli	IN	Asia/Kolkata	863033069630348735
35	136.51667	Komono	JP	Asia/Tokyo	3590433799317662048
43.61062	-72.97261	Rutland	US	America/New_York	8630330696303482428
37.52487	-77.55777	Bon Air	US	America/New_York	863033069630348578
10.12268	77.54372	Periyakulam	IN	Asia/Kolkata	863033069630348073
29.21399	78.95693	Kashipur	IN	Asia/Kolkata	3590433799317661180
32.44874	-99.73314	Abilene	US	America/Chicago	8630330696303482030
-22.97056	-46.99583	Valinhos	BR	America/Sao_Paulo	3590433799317661701
28.90054	-81.26367	Deltona	US	America/New_York	3590433799317662030
52.14	5.58472	Barneveld	NL	Europe/Amsterdam	359043379931766080
-4.06667	37.73333	Same	TZ	Africa/Dar_es_Salaam	359043379931766387
55.85	37.56667	Likhobory	RU	Europe/Moscow	8630330696303481305
40.5576	-74.28459	Woodbridge	US	America/New_York	8630330696303482394
44.80477	-0.59543	Talence	FR	Europe/Paris	3590433799317662451
12.37169	123.62494	Masbate	PH	Asia/Manila	359043379931766718
-21.44345	-65.71875	Tupiza	BO	America/La_Paz	863033069630348784
41.09822	120.74792	Nanpiao	CN	Asia/Shanghai	3590433799317661792
17.54907	82.85749	Elamanchili	IN	Asia/Kolkata	3590433799317661511
33.54428	-84.23381	Stockbridge	US	America/New_York	359043379931766437
34.8825	128.62667	Sinhyeon	KR	Asia/Seoul	359043379931766635
56.03361	35.96944	Volokolamsk	RU	Europe/Moscow	3590433799317661206
46.7055	38.2739	Yeysk	RU	Europe/Moscow	3590433799317661313
40.82232	-74.15987	Nutley	US	America/New_York	863033069630348891
-19.32556	-41.25528	Resplendor	BR	America/Sao_Paulo	8630330696303481313
9.58126	8.2926	Kafanchan	NG	Africa/Lagos	3590433799317661933
29.65163	-82.32483	Gainesville	US	America/New_York	8630330696303482048
34.56861	105.89333	Beidao	CN	Asia/Shanghai	863033069630348735
33.72255	-116.37697	Palm Desert	US	America/Los_Angeles	8630330696303481743
-3.14306	-58.44417	Itacoatiara	BR	America/Manaus	3590433799317661537
41.57439	24.71204	Smolyan	BG	Europe/Sofia	3590433799317662139
7.50251	5.06258	Igbara-Odo	NG	Africa/Lagos	8630330696303481040
14.46693	75.92694	Davangere	IN	Asia/Kolkata	3590433799317661909
-28.24	-48.67028	Imbituba	BR	America/Sao_Paulo	863033069630348412
-3.5403	118.9707	Majene	ID	Asia/Makassar	8630330696303481420
50.71229	4.52529	Rixensart	BE	Europe/Brussels	8630330696303481560
40.56754	-89.64066	Pekin	US	America/Chicago	359043379931766767
23.73333	114.68333	Heyuan	CN	Asia/Shanghai	359043379931766932
7.65649	4.92235	Efon-Alaaye	NG	Africa/Lagos	3590433799317662436
48.8449	17.22635	Skalica	SK	Europe/Bratislava	863033069630348594
-30.60106	-71.19901	Ovalle	CL	America/Santiago	3590433799317661586
51.47805	6.8625	Oberhausen	DE	Europe/Berlin	8630330696303482402
13.48082	-86.58208	Somoto	NI	America/Managua	8630330696303481198
26.32293	91.00632	Barpeta	IN	Asia/Kolkata	863033069630348776
36.92574	14.72443	Ragusa	IT	Europe/Rome	8630330696303481032
-6.25	38.66667	Mvomero	TZ	Africa/Dar_es_Salaam	359043379931766254
41.91738	3.1631	Palafrugell	ES	Europe/Madrid	863033069630348859
49.65186	26.97253	Krasyliv	UA	Europe/Kyiv	3590433799317662212
45.99194	29.41824	Artsyz	UA	Europe/Kyiv	863033069630348677
-0.35817	42.54536	Kismayo	SO	Africa/Mogadishu	863033069630348511
21.28306	-89.66123	Progreso	MX	America/Merida	8630330696303482204
-27.76952	30.79165	Vryheid	ZA	Africa/Johannesburg	8630330696303481255
29.98869	122.20488	Zhoushan	CN	Asia/Shanghai	8630330696303481479
50.71229	4.52529	Rixensart	BE	Europe/Brussels	3590433799317661222
41.72063	12.6723	Ariccia	IT	Europe/Rome	359043379931766742
38.40917	112.73333	Xinzhou	CN	Asia/Shanghai	8630330696303482196
25.95533	68.88871	Jhol	PK	Asia/Karachi	3590433799317661693
51.78771	56.36091	Saraktash	RU	Asia/Yekaterinburg	863033069630348388
37.31065	13.57661	Agrigento	IT	Europe/Rome	863033069630348818
47.56494	31.33078	Voznesensk	UA	Europe/Kyiv	3590433799317661057
48.25	16.4	Floridsdorf	AT	Europe/Vienna	863033069630348180
10.58806	77.24779	Udumalaippettai	IN	Asia/Kolkata	863033069630348123
47.46657	84.87144	Zaysan	KZ	Asia/Almaty	863033069630348578
38.13708	41.00817	Silvan	TR	Europe/Istanbul	863033069630348008
40.37528	28.88222	Mudanya	TR	Europe/Istanbul	3590433799317661263
36.27462	4.85668	Bordj Zemoura	DZ	Africa/Algiers	3590433799317662246
42.8139	-1.64295	Segundo Ensanche	ES	Europe/Madrid	359043379931766783
43.61058	1.33467	Colomiers	FR	Europe/Paris	863033069630348446
12.97389	123.99333	Sorsogon	PH	Asia/Manila	8630330696303481750
54.39635	24.04142	Alytus	LT	Europe/Vilnius	3590433799317661826
65.84811	24.14662	Tornio	FI	Europe/Helsinki	8630330696303481982
53.94313	10.30215	Bad Segeberg	DE	Europe/Berlin	3590433799317661263
34.81667	137.4	Toyokawa	JP	Asia/Tokyo	359043379931766981
37.71715	-122.40433	Visitacion Valley	US	America/Los_Angeles	863033069630348438
20.74122	-100.44843	Santa Rosa Jauregui	MX	America/Mexico_City	8630330696303481420
45.35	126.28333	Shuangcheng	CN	Asia/Shanghai	359043379931766122
43.67681	4.63031	Arles	FR	Europe/Paris	3590433799317662352
31.12406	-97.90308	Copperas Cove	US	America/Chicago	359043379931766098
28.98002	77.70636	Meerut	IN	Asia/Kolkata	8630330696303482444
34.8825	128.62667	Sinhyeon	KR	Asia/Seoul	863033069630348255
45.4473	-73.75335	Dorval	CA	America/Toronto	3590433799317661636
5.84752	-5.682	Lakota	CI	Africa/Abidjan	359043379931766759
51.39148	-0.29825	Surbiton	GB	Europe/London	863033069630348610
31.28092	74.85849	Patti	IN	Asia/Kolkata	359043379931766486
35.89972	14.51472	Valletta	MT	Europe/Malta	8630330696303481784
41.48199	-81.79819	Lakewood	US	America/New_York	863033069630348727
20.21322	-100.88023	Salvatierra	MX	America/Mexico_City	8630330696303481123
9.58126	8.2926	Kafanchan	NG	Africa/Lagos	359043379931766536
48.78232	9.17702	Stuttgart	DE	Europe/Berlin	8630330696303481677
8.43333	99.96667	Nakhon Si Thammarat	TH	Asia/Bangkok	3590433799317662089
29.69221	72.54566	Hasilpur	PK	Asia/Karachi	8630330696303482170
32.55531	76.12647	Chamba	IN	Asia/Kolkata	3590433799317661669
46.65581	32.6178	Kherson	UA	Europe/Kyiv	3590433799317661933
2.2139	102.3278	Kampung Ayer Molek	MY	Asia/Kuala_Lumpur	863033069630348693
-22.92306	-53.13722	Loanda	BR	America/Sao_Paulo	863033069630348321
48.35149	8.96317	Hechingen	DE	Europe/Berlin	3590433799317661750
41.50343	-74.01042	Newburgh	US	America/New_York	8630330696303482055
11.8659	34.3869	Ar Ruseris	SD	Africa/Khartoum	359043379931766361
41.09246	45.36561	Qazax	AZ	Asia/Baku	8630330696303481396
53.19146	-2.52398	Winsford	GB	Europe/London	863033069630348511
36.53333	136.61667	Nonoichi	JP	Asia/Tokyo	359043379931766585
-19.7625	-44.31389	Esmeraldas	BR	America/Sao_Paulo	359043379931766783
48.28259	9.72749	Ehingen	DE	Europe/Berlin	359043379931766205
31.39547	34.75699	Rahat	IL	Asia/Jerusalem	3590433799317661503
41.63976	2.35739	Cardedeu	ES	Europe/Madrid	3590433799317662287
34.8825	128.62667	Sinhyeon	KR	Asia/Seoul	863033069630348800
16.455	120.5875	La Trinidad	PH	Asia/Manila	3590433799317662337
8.62261	-70.20749	Barinas	VE	America/Caracas	3590433799317661453
-19.72806	-50.19556	Iturama	BR	America/Sao_Paulo	8630330696303481891
-27.50578	153.10236	Carindale	AU	Australia/Brisbane	8630330696303481321
7.83389	-72.47417	Villa del Rosario	CO	America/Bogota	863033069630348149
52.2	8.63333	Kirchlengern	DE	Europe/Berlin	8630330696303481792
-5.85746	144.23058	Mount Hagen	PG	Pacific/Port_Moresby	3590433799317661875
46.08333	122.08333	Ulanhot	CN	Asia/Shanghai	8630330696303482048
41.09822	120.74792	Nanpiao	CN	Asia/Shanghai	8630330696303481750
53.14657	140.72287	Nikolayevsk-on-Amure	RU	Asia/Vladivostok	8630330696303482139
34.08565	74.80555	Srinagar	IN	Asia/Kolkata	8630330696303482030
23.49668	86.68363	Adra	IN	Asia/Kolkata	3590433799317661057
53.14657	140.72287	Nikolayevsk-on-Amure	RU	Asia/Vladivostok	3590433799317661602
40.85158	122.74754	Haicheng	CN	Asia/Shanghai	863033069630348909
48.8449	17.22635	Skalica	SK	Europe/Bratislava	8630330696303481909
14.67751	-60.94228	Le Robert	MQ	America/Martinique	8630330696303481818
40.34912	-111.90466	Saratoga Springs	US	America/Denver	863033069630348933
41.77583	140.73667	Hakodate	JP	Asia/Tokyo	3590433799317662238
37.56667	140.11667	Inawashiro	JP	Asia/Tokyo	359043379931766817
22.19303	88.18466	Diamond Harbour	IN	Asia/Kolkata	8630330696303482493
3.02013	30.91105	Arua	UG	Africa/Kampala	8630330696303482238
36.82167	128.63083	Eisen	KR	Asia/Seoul	359043379931766916
27.85	112.9	Xiangtan	CN	Asia/Shanghai	359043379931766379
46.1351	-60.1831	Sydney	CA	America/Glace_Bay	863033069630348776
53.93361	37.92792	Kireyevsk	RU	Europe/Moscow	8630330696303481297
-17.73648	168.31366	Port-Vila	VU	Pacific/Efate	863033069630348446
44.31771	9.32241	Chiavari	IT	Europe/Rome	3590433799317661701
35.95664	36.7138	Binnish	SY	Asia/Damascus	863033069630348719
41.91886	8.73812	Ajaccio	FR	Europe/Paris	3590433799317661172
-23.44361	-51.87389	Sarandi	BR	America/Sao_Paulo	8630330696303481834
24.96334	10.18003	Ghat	LY	Africa/Tripoli	3590433799317662451
39.09112	-94.41551	Independence	US	America/Chicago	3590433799317661446
14.62072	74.83554	Sirsi	IN	Asia/Kolkata	863033069630348180
9.82564	78.25795	Tiruppuvanam	IN	Asia/Kolkata	359043379931766858
37.74615	-25.66689	Ponta Delgada	PT	Atlantic/Azores	3590433799317662113
61.72744	17.10558	Hudiksvall	SE	Europe/Stockholm	863033069630348768
8.88649	2.59753	Tchaourou	BJ	Africa/Porto-Novo	359043379931766486
55.38752	36.73307	Naro-Fominsk	RU	Europe/Moscow	3590433799317662121
26.9423	68.11759	Tharu Shah	PK	Asia/Karachi	863033069630348701
-0.71667	-48.52333	Soure	BR	America/Belem	359043379931766056
51.12794	4.21372	Temse	BE	Europe/Brussels	359043379931766585
42.819	47.1192	Buynaksk	RU	Europe/Moscow	8630330696303481339
35.74788	-95.36969	Muskogee	US	America/Chicago	359043379931766460
34.56861	105.89333	Beidao	CN	Asia/Shanghai	8630330696303481776
51.42708	-0.91979	Lower Earley	GB	Europe/London	359043379931766536
10.63504	-85.43772	Liberia	CR	America/Costa_Rica	359043379931766106
44.35056	142.45778	Nayoro	JP	Asia/Tokyo	359043379931766551
47.76232	-122.2054	Bothell	US	America/Los_Angeles	3590433799317661230
15.73628	75.96976	Gajendragarh	IN	Asia/Kolkata	863033069630348826
28.54944	-81.77285	Clermont	US	America/New_York	8630330696303482469
43.91452	-69.96533	Brunswick	US	America/New_York	3590433799317661214
6.46838	-73.26022	Socorro	CO	America/Bogota	3590433799317661636
48.21644	9.02596	Albstadt	DE	Europe/Berlin	8630330696303482220
48.98994	2.1699	Herblay	FR	Europe/Paris	3590433799317661602
-33.75881	150.99292	Baulkham Hills	AU	Australia/Sydney	863033069630348438
37.73222	115.70111	Hengshui	CN	Asia/Shanghai	863033069630348487
48.77644	2.29026	Sceaux	FR	Europe/Paris	8630330696303481941
6.8485	3.64633	Shagamu	NG	Africa/Lagos	8630330696303482139
19.21667	73.08333	Dombivli	IN	Asia/Kolkata	3590433799317661164
51.65333	5.2875	Vught	NL	Europe/Amsterdam	863033069630348453
10.63504	-85.43772	Liberia	CR	America/Costa_Rica	8630330696303481891
37.74615	-25.66689	Ponta Delgada	PT	Atlantic/Azores	863033069630348875
33.95015	-118.03917	South Whittier	US	America/Los_Angeles	3590433799317662378
36.75965	137.36215	Namerikawa	JP	Asia/Tokyo	863033069630348818
30.5427	-97.54667	Hutto	US	America/Chicago	3590433799317661123
50.72043	11.34046	Rudolstadt	DE	Europe/Berlin	3590433799317661727
48.86667	2.08333	Marly-le-Roi	FR	Europe/Paris	3590433799317661248
54.84444	38.16694	Kashira	RU	Europe/Moscow	3590433799317661099
40.72371	-73.95097	Greenpoint	US	America/New_York	8630330696303481925
22.10194	85.37752	Barbil	IN	Asia/Kolkata	3590433799317662402
36.61954	4.08282	Beni Douala	DZ	Africa/Algiers	359043379931766908
-1.26424	104.09701	Simpang	ID	Asia/Jakarta	8630330696303481693
11.84962	-86.19903	Jinotepe	NI	America/Managua	359043379931766817
35.82756	137.95378	Ina	JP	Asia/Tokyo	3590433799317662444
5.6561	-75.87877	Andes	CO	America/Bogota	8630330696303482113
46.67535	5.55575	Lons-le-Saunier	FR	Europe/Paris	8630330696303481560
31.71667	73.38333	Sangla Hill	PK	Asia/Karachi	8630330696303481925
15.79408	104.1451	Yasothon	TH	Asia/Bangkok	359043379931766775
48.77644	2.29026	Sceaux	FR	Europe/Paris	3590433799317662360
-4.42472	-41.45861	Pedro II	BR	America/Fortaleza	3590433799317661172
31.92923	34.86563	Ramla	IL	Asia/Jerusalem	3590433799317661461
37.35813	-6.03731	San Juan de Aznalfarache	ES	Europe/Madrid	3590433799317662428
48.43174	17.8031	Hlohovec	SK	Europe/Bratislava	8630330696303481784
33.92946	-116.97725	Beaumont	US	America/Los_Angeles	8630330696303482055
51.14942	15.00835	Zgorzelec	PL	Europe/Warsaw	3590433799317662287
41.55947	14.66737	Campobasso	IT	Europe/Rome	359043379931766684
20.88098	75.11937	Parola	IN	Asia/Kolkata	8630330696303481495
41.91738	3.1631	Palafrugell	ES	Europe/Madrid	359043379931766429
57.97472	33.2525	Valday	RU	Europe/Moscow	359043379931766635
47.30997	8.52462	Adliswil	CH	Europe/Zurich	359043379931766593
16.75973	-93.11308	Tuxtla	MX	America/Mexico_City	863033069630348768
-23.44361	-51.87389	Sarandi	BR	America/Sao_Paulo	863033069630348412
64.5635	39.8302	Severodvinsk	RU	Europe/Moscow	3590433799317662220
29.22254	79.5286	Haldwani	IN	Asia/Kolkata	8630330696303481677
48.90472	2.2469	La Garenne-Colombes	FR	Europe/Paris	3590433799317662477
31.20176	29.91582	Alexandria	EG	Africa/Cairo	8630330696303481073
7.6	4.18333	Olupona	NG	Africa/Lagos	3590433799317661164
48.98333	2.61667	Mitry-Mory	FR	Europe/Paris	863033069630348297
55.75556	60.70278	Ozersk	RU	Asia/Yekaterinburg	359043379931766320
34.5624	38.28402	Tadmur	SY	Asia/Damascus	359043379931766676
25.87498	86.59611	Saharsa	IN	Asia/Kolkata	863033069630348834
49.07866	30.96755	Zvenihorodka	UA	Europe/Kyiv	863033069630348776
57.14369	-2.09814	Aberdeen	GB	Europe/London	8630330696303482113
39.96097	-75.60804	West Chester	US	America/New_York	863033069630348099
-21.41222	-42.19667	Miracema	BR	America/Sao_Paulo	3590433799317661552
46.32374	-120.00865	Sunnyside	US	America/Los_Angeles	863033069630348461
31.28092	74.85849	Patti	IN	Asia/Kolkata	359043379931766783
-26.93366	29.24152	Standerton	ZA	Africa/Johannesburg	3590433799317661248
34.5624	38.28402	Tadmur	SY	Asia/Damascus	359043379931766783
36.65	138.31667	Suzaka	JP	Asia/Tokyo	3590433799317662279
49.68369	8.61839	Bensheim	DE	Europe/Berlin	863033069630348842
35.05266	-78.87836	Fayetteville	US	America/New_York	8630330696303481628
45.50369	11.412	Montecchio Maggiore-Alte Ceccato	IT	Europe/Rome	8630330696303481149
-10.91111	-37.07167	Aracaju	BR	America/Maceio	8630330696303481743
53.5942	25.8191	Novogrudok	BY	Europe/Minsk	8630330696303481610
41.24264	16.50104	Bisceglie	IT	Europe/Rome	863033069630348990
51.03427	5.37429	Houthalen	BE	Europe/Brussels	3590433799317662493
29.69221	72.54566	Hasilpur	PK	Asia/Karachi	863033069630348305
39.46667	141.95	Yamada	JP	Asia/Tokyo	359043379931766122
55.85	37.56667	Likhobory	RU	Europe/Moscow	3590433799317661594
41.27621	-72.86843	East Haven	US	America/New_York	3590433799317662402
43.96222	43.63417	Novopavlovsk	RU	Europe/Moscow	3590433799317661362
-8.66667	-35.71667	Catende	BR	America/Recife	863033069630348222
22.83957	91.84128	Manikchari	BD	Asia/Dhaka	3590433799317661792
34.4833	136.84186	Toba	JP	Asia/Tokyo	8630330696303482006
36.21544	65.93249	Sar-e Pul	AF	Asia/Kabul	3590433799317661941
15.73628	75.96976	Gajendragarh	IN	Asia/Kolkata	8630330696303481404
43.16547	-77.70066	Gates-North Gates	US	America/New_York	3590433799317661305
-26.22861	-52.67056	Pato Branco	BR	America/Sao_Paulo	359043379931766213
53.53395	33.72798	Zhukovka	RU	Europe/Moscow	3590433799317662394
46.08333	122.08333	Ulanhot	CN	Asia/Shanghai	8630330696303481941
44.85278	65.50917	Kyzylorda	KZ	Asia/Qyzylorda	359043379931766635
11.86064	9.0027	Gaya	NG	Africa/Lagos	359043379931766502
-23.7975	-48.59278	Buri	BR	America/Sao_Paulo	863033069630348057
-21.44236	27.46153	Tonota	BW	Africa/Gaborone	8630330696303482063
49.03685	8.70745	Bretten	DE	Europe/Berlin	8630330696303481628
52.61131	13.31783	Hermsdorf	DE	Europe/Berlin	863033069630348107
7.6	4.18333	Olupona	NG	Africa/Lagos	3590433799317661636
35.95664	36.7138	Binnish	SY	Asia/Damascus	3590433799317661800
43.2907	5.4384	Marseille 11	FR	Europe/Paris	359043379931766593
10.15031	-73.9614	El Copey	CO	America/Bogota	3590433799317661669
25.49043	85.94001	Teghra	IN	Asia/Kolkata	3590433799317661842
15.73628	75.96976	Gajendragarh	IN	Asia/Kolkata	863033069630348412
33.4425	129.96972	Karatsu	JP	Asia/Tokyo	3590433799317662451
65.84811	24.14662	Tornio	FI	Europe/Helsinki	863033069630348248
47.80527	-122.24064	Bothell West	US	America/Los_Angeles	863033069630348008
42.50729	1.53414	les Escaldes	AD	Europe/Andorra	3590433799317662311
33.86419	48.26258	Aleshtar	IR	Asia/Tehran	359043379931766007
40.57788	-73.95958	Brighton Beach	US	America/New_York	359043379931766908
2.2139	102.3278	Kampung Ayer Molek	MY	Asia/Kuala_Lumpur	8630330696303481081
48.8222	2.12213	Le Chesnay	FR	Europe/Paris	8630330696303481669
-8.05389	-34.88111	Recife	BR	America/Recife	8630330696303481388
40.68066	-73.47429	Massapequa	US	America/New_York	8630330696303481925
51.67822	33.9162	Hlukhiv	UA	Europe/Kyiv	3590433799317661263
15.46063	99.89166	Thap Than	TH	Asia/Bangkok	3590433799317661610
40.81	-73.9625	Morningside Heights	US	America/New_York	8630330696303481412
53.78333	-1.06667	Selby	GB	Europe/London	3590433799317661057
34.25807	-88.70464	Tupelo	US	America/Chicago	3590433799317661057
33.14447	47.3799	Darreh Shahr	IR	Asia/Tehran	3590433799317662279
43.71032	-1.05366	Dax	FR	Europe/Paris	8630330696303481404
7.83389	-72.47417	Villa del Rosario	CO	America/Bogota	3590433799317661453
34.8825	128.62667	Sinhyeon	KR	Asia/Seoul	8630330696303481677
33.86419	48.26258	Aleshtar	IR	Asia/Tehran	8630330696303481594
48	-4.1	Quimper	FR	Europe/Paris	3590433799317661875
-5.85746	144.23058	Mount Hagen	PG	Pacific/Port_Moresby	8630330696303481131
-44.39672	171.25364	Timaru	NZ	Pacific/Auckland	8630330696303481511
36	139.55722	Okegawa	JP	Asia/Tokyo	863033069630348511
5.4709	100.24529	Batu Feringgi	MY	Asia/Kuala_Lumpur	359043379931766775
45.47885	133.42825	Lesozavodsk	RU	Asia/Vladivostok	3590433799317661297
-19.72806	-50.19556	Iturama	BR	America/Sao_Paulo	359043379931766908
27.76056	-15.58602	Maspalomas	ES	Atlantic/Canary	8630330696303481370
41.48199	-81.79819	Lakewood	US	America/New_York	3590433799317661479
55.75556	60.70278	Ozersk	RU	Asia/Yekaterinburg	3590433799317661370
13.73417	-89.71472	Sonzacate	SV	America/El_Salvador	3590433799317662295
5.84752	-5.682	Lakota	CI	Africa/Abidjan	8630330696303481032
46.32313	-0.45877	Niort	FR	Europe/Paris	3590433799317661297
38.06084	-97.92977	Hutchinson	US	America/Chicago	359043379931766130
-21.15	46.58333	Ikalamavony	MG	Indian/Antananarivo	863033069630348453
51.62907	-0.74934	High Wycombe	GB	Europe/London	8630330696303481222
-11.78333	19.91667	Luena	AO	Africa/Luanda	8630330696303481768
-6.48167	106.85417	Cibinong	ID	Asia/Jakarta	359043379931766544
50.073658	14.418540	Praha	CZ	Europe/Prague	8630330696303481081
44.98901	38.94324	Yablonovskiy	RU	Europe/Moscow	359043379931766247
-44.39672	171.25364	Timaru	NZ	Pacific/Auckland	3590433799317661024
40.24537	-75.64963	Pottstown	US	America/New_York	359043379931766353
14.62072	74.83554	Sirsi	IN	Asia/Kolkata	3590433799317661131
42.35843	-71.05977	Boston	US	America/New_York	8630330696303482436
44.92801	4.8951	Valence	FR	Europe/Paris	8630330696303482162
54.48147	53.47103	Oktyabr‚Äôskiy	RU	Asia/Yekaterinburg	863033069630348487
25.87498	86.59611	Saharsa	IN	Asia/Kolkata	3590433799317661412
22.98212	-80.58556	Corralillo	CU	America/Havana	863033069630348743
48.812737	14.317466	Český Krumlov	CZ	Europe/Prague	3590433799317661396
48.21644	9.02596	Albstadt	DE	Europe/Berlin	8630330696303481081
46.1351	-60.1831	Sydney	CA	America/Glace_Bay	359043379931766361
42.97086	-82.42491	Port Huron	US	America/Detroit	3590433799317661958
-22.53722	-42.98194	Guapimirim	BR	America/Sao_Paulo	8630330696303481560
50.75767	-1.5443	Lymington	GB	Europe/London	359043379931766585
21.01858	-101.2591	Guanajuato	MX	America/Mexico_City	863033069630348537
28.71271	77.656	Pilkhua	IN	Asia/Kolkata	8630330696303481917
47.38093	-122.23484	Kent	US	America/Los_Angeles	359043379931766585
51.84819	1.26738	Walton-on-the-Naze	GB	Europe/London	863033069630348305
58.1908	40.17171	Danilov	RU	Europe/Moscow	359043379931766122
36.24624	139.07204	Fujioka	JP	Asia/Tokyo	3590433799317661628
22.75218	72.68533	Kheda	IN	Asia/Kolkata	863033069630348917
42	21.32778	Saraj	MK	Europe/Skopje	3590433799317662469
35.21222	2.31889	Ksar Chellala	DZ	Africa/Algiers	8630330696303481602
-10.95817	-38.79084	Tucano	BR	America/Bahia	3590433799317661040
40.72586	8.55552	Sassari	IT	Europe/Rome	863033069630348750
60.2052	24.6522	Espoo	FI	Europe/Helsinki	3590433799317662311
-1.63333	13.58357	Franceville	GA	Africa/Libreville	863033069630348644
7.62789	4.74161	Ilesa	NG	Africa/Lagos	8630330696303482352
37.52487	-77.55777	Bon Air	US	America/New_York	8630330696303482055
18.18158	76.03889	Osmanabad	IN	Asia/Kolkata	8630330696303481453
6.46346	-2.31938	Bibiani	GH	Africa/Accra	8630330696303481305
-8.66667	-35.71667	Catende	BR	America/Recife	8630330696303481719
36.61033	-88.31476	Murray	US	America/Chicago	8630330696303481172
41.09822	120.74792	Nanpiao	CN	Asia/Shanghai	359043379931766585
12.97389	123.99333	Sorsogon	PH	Asia/Manila	863033069630348271
8.79577	-75.69947	San Carlos	CO	America/Bogota	3590433799317662154
18.18158	76.03889	Osmanabad	IN	Asia/Kolkata	359043379931766890
46.08333	122.08333	Ulanhot	CN	Asia/Shanghai	3590433799317662238
6.9909	79.883	Hendala	LK	Asia/Colombo	3590433799317661057
43.96222	43.63417	Novopavlovsk	RU	Europe/Moscow	3590433799317661214
19.8173	-97.35992	Teziutlan	MX	America/Mexico_City	3590433799317661974
51.88333	8.51667	Verl	DE	Europe/Berlin	863033069630348651
43.71032	-1.05366	Dax	FR	Europe/Paris	8630330696303481081
50.75767	-1.5443	Lymington	GB	Europe/London	359043379931766056
53.78333	-1.06667	Selby	GB	Europe/London	3590433799317662097
51.03427	5.37429	Houthalen	BE	Europe/Brussels	359043379931766833
-11.94306	-76.70944	Chosica	PE	America/Lima	8630330696303482097
43.2907	5.4384	Marseille 11	FR	Europe/Paris	8630330696303482006
-19.65	47.31667	Antanifotsy	MG	Indian/Antananarivo	863033069630348206
49.144482	15.006139	Jindřichův Hradec	CZ	Europe/Prague	863033069630348420
29.22254	79.5286	Haldwani	IN	Asia/Kolkata	8630330696303481156
48.21644	9.02596	Albstadt	DE	Europe/Berlin	359043379931766114
7.65649	4.92235	Efon-Alaaye	NG	Africa/Lagos	8630330696303481446
46.75451	33.34864	Nova Kakhovka	UA	Europe/Kyiv	8630330696303481552
22.10194	85.37752	Barbil	IN	Asia/Kolkata	8630330696303482410
36.20829	-115.98391	Pahrump	US	America/Los_Angeles	863033069630348362
17.34769	78.55757	Lal Bahadur Nagar	IN	Asia/Kolkata	3590433799317662246
38.72706	-9.24671	Carnaxide	PT	Europe/Lisbon	359043379931766411
47.90771	106.88324	Ulan Bator	MN	Asia/Ulaanbaatar	359043379931766163
58.7002	59.4839	Kachkanar	RU	Asia/Yekaterinburg	3590433799317661305
54.03876	43.91385	Kovylkino	RU	Europe/Moscow	3590433799317662204
20.88098	75.11937	Parola	IN	Asia/Kolkata	863033069630348669
50.18545	27.06365	Shepetivka	UA	Europe/Kyiv	8630330696303482436
41.1053	-7.32097	Custoias	PT	Europe/Lisbon	8630330696303481248
39.22493	42.85693	Patnos	TR	Europe/Istanbul	359043379931766411
40.60538	-73.75513	Far Rockaway	US	America/New_York	863033069630348057
13.70167	-89.10944	Ilopango	SV	America/El_Salvador	3590433799317661560
41.84364	-87.71255	South Lawndale	US	America/Chicago	8630330696303482071
37.65181	120.33063	Longgang	CN	Asia/Shanghai	3590433799317661404
32.42067	-104.22884	Carlsbad	US	America/Denver	863033069630348982
33.43443	-5.22126	Azrou	MA	Africa/Casablanca	3590433799317662436
49.07866	30.96755	Zvenihorodka	UA	Europe/Kyiv	863033069630348669
-10.90889	-37.03861	Barra dos Coqueiros	BR	America/Maceio	3590433799317661594
41.54566	-71.29144	Middletown	US	America/New_York	359043379931766981
48.77644	2.29026	Sceaux	FR	Europe/Paris	8630330696303482105
0.03813	36.36339	Nyahururu	KE	Africa/Nairobi	3590433799317661347
-38.16604	145.13643	Frankston South	AU	Australia/Melbourne	359043379931766742
16.06213	76.0586	Hungund	IN	Asia/Kolkata	359043379931766601
40.58654	-122.39168	Redding	US	America/Los_Angeles	359043379931766114
39.72943	-104.83192	Aurora	US	America/Denver	359043379931766031
37.05944	37.3825	Gaziantep	TR	Europe/Istanbul	863033069630348487
50.76306	-1.29772	Cowes	GB	Europe/London	359043379931766338
49.183239	15.454273	Telč	CZ	Europe/Prague	8630330696303482428
-23.7975	-48.59278	Buri	BR	America/Sao_Paulo	863033069630348255
41.85059	-87.882	Westchester	US	America/Chicago	359043379931766767
-34.88422	150.60036	Nowra	AU	Australia/Sydney	863033069630348248
52.57583	6.61944	Hardenberg	NL	Europe/Amsterdam	3590433799317661578
-4.26613	15.28318	Brazzaville	CG	Africa/Brazzaville	863033069630348081
54.39635	24.04142	Alytus	LT	Europe/Vilnius	8630330696303481461
59.37722	28.19028	Narva	EE	Europe/Tallinn	8630330696303481693
43.54072	-116.56346	Nampa	US	America/Boise	359043379931766957
53.53395	33.72798	Zhukovka	RU	Europe/Moscow	863033069630348677
32.55531	76.12647	Chamba	IN	Asia/Kolkata	3590433799317661362
33.43443	-5.22126	Azrou	MA	Africa/Casablanca	3590433799317661818
65.93381	111.4834	Aykhal	RU	Asia/Yakutsk	863033069630348008
-26.93366	29.24152	Standerton	ZA	Africa/Johannesburg	3590433799317661214
40.1675	34.37389	Sungurlu	TR	Europe/Istanbul	863033069630348420
50.50301	13.63617	Most	CZ	Europe/Prague	8630330696303481123
-23.7975	-48.59278	Buri	BR	America/Sao_Paulo	3590433799317661529
19.64745	-102.04897	Paracho de Verduzco	MX	America/Mexico_City	863033069630348313
55.85	37.56667	Likhobory	RU	Europe/Moscow	8630330696303481412
12.18441	18.69303	Mongo	TD	Africa/Ndjamena	3590433799317661156
37.60876	-77.37331	Mechanicsville	US	America/New_York	359043379931766577
48.46458	9.22796	Pfullingen	DE	Europe/Berlin	359043379931766361
58.7002	59.4839	Kachkanar	RU	Asia/Yekaterinburg	359043379931766676
54.48147	53.47103	Oktyabr‚Äôskiy	RU	Asia/Yekaterinburg	359043379931766932
59.80917	30.38167	Shushary	RU	Europe/Moscow	863033069630348545
-5.85746	144.23058	Mount Hagen	PG	Pacific/Port_Moresby	359043379931766791
51.47805	6.8625	Oberhausen	DE	Europe/Berlin	863033069630348545
51.955	5.22778	Culemborg	NL	Europe/Amsterdam	3590433799317662246
45.39402	9.29109	San Giuliano Milanese	IT	Europe/Rome	359043379931766494
-23.7975	-48.59278	Buri	BR	America/Sao_Paulo	3590433799317661016
-10.91111	-37.07167	Aracaju	BR	America/Maceio	3590433799317662311
32.61603	44.02488	Karbala	IQ	Asia/Baghdad	3590433799317661073
50.23019	8.77155	Karben	DE	Europe/Berlin	8630330696303481511
39.96348	-4.83076	Talavera de la Reina	ES	Europe/Madrid	359043379931766692
-8.05389	-34.88111	Recife	BR	America/Recife	863033069630348214
40.87329	14.43865	Somma Vesuviana	IT	Europe/Rome	3590433799317662089
25.87972	-97.50417	Heroica Matamoros	MX	America/Matamoros	863033069630348966
6.46346	-2.31938	Bibiani	GH	Africa/Accra	359043379931766882
-28.24	-48.67028	Imbituba	BR	America/Sao_Paulo	8630330696303482196
29.69221	72.54566	Hasilpur	PK	Asia/Karachi	863033069630348891
43.50891	16.43915	Split	HR	Europe/Zagreb	8630330696303481206
29.98869	122.20488	Zhoushan	CN	Asia/Shanghai	863033069630348347
47.38093	-122.23484	Kent	US	America/Los_Angeles	863033069630348388
55.25	24.75	Ukmerge	LT	Europe/Vilnius	3590433799317661537
23.0072	-82.4017	Boyeros	CU	America/Havana	3590433799317661891
41.55838	-81.56929	Collinwood	US	America/New_York	359043379931766619
34.61667	135.6	Yao	JP	Asia/Tokyo	3590433799317661933
6.9909	79.883	Hendala	LK	Asia/Colombo	863033069630348941
-34.64167	-60.47389	Chacabuco	AR	America/Argentina/Buenos_Aires	8630330696303481412
35.20889	111.73861	Changzhi	CN	Asia/Shanghai	359043379931766932
56.9083	60.8019	Beryozovsky	RU	Asia/Yekaterinburg	3590433799317661792
35.06544	1.04945	Frenda	DZ	Africa/Algiers	3590433799317661347
44.92934	37.99117	Krymsk	RU	Europe/Moscow	359043379931766247
48.98333	2.61667	Mitry-Mory	FR	Europe/Paris	8630330696303482105
-38.65333	178.00417	Gisborne	NZ	Pacific/Auckland	8630330696303481438
43.71032	-1.05366	Dax	FR	Europe/Paris	8630330696303481511
53.30972	83.62389	Novosilikatnyy	RU	Asia/Barnaul	8630330696303481743
-4.24444	-42.29444	Barras	BR	America/Fortaleza	3590433799317661701
43.16547	-77.70066	Gates-North Gates	US	America/New_York	8630330696303481677
47.38093	-122.23484	Kent	US	America/Los_Angeles	359043379931766601
57.97472	33.2525	Valday	RU	Europe/Moscow	3590433799317662238
-19.65	47.31667	Antanifotsy	MG	Indian/Antananarivo	359043379931766775
36.19278	117.65694	Laiwu	CN	Asia/Shanghai	863033069630348289
53.30972	83.62389	Novosilikatnyy	RU	Asia/Barnaul	3590433799317661495
15.79408	104.1451	Yasothon	TH	Asia/Bangkok	8630330696303481057
48.8765	2.18967	Rueil-Malmaison	FR	Europe/Paris	863033069630348743
37.49073	-2.77259	Baza	ES	Europe/Madrid	3590433799317662055
40.1675	34.37389	Sungurlu	TR	Europe/Istanbul	3590433799317661602
40.82232	-74.15987	Nutley	US	America/New_York	8630330696303481693
60.97944	76.92421	Izluchinsk	RU	Asia/Yekaterinburg	3590433799317661727
51.78771	56.36091	Saraktash	RU	Asia/Yekaterinburg	359043379931766023
35.61452	-88.81395	Jackson	US	America/Chicago	3590433799317661446
32.65246	51.67462	Isfahan	IR	Asia/Tehran	3590433799317661727
41.09822	120.74792	Nanpiao	CN	Asia/Shanghai	8630330696303481602
-20.25333	-43.80139	Itabirito	BR	America/Sao_Paulo	3590433799317661867
37.49223	15.07041	Catania	IT	Europe/Rome	3590433799317662485
8.79577	-75.69947	San Carlos	CO	America/Bogota	863033069630348370
53.53333	-7.35	An Muileann gCearr	IE	Europe/Dublin	3590433799317662162
22.49396	-105.36369	Acaponeta	MX	America/Mazatlan	359043379931766288
49.952431	15.268654	Kutná Hora	CZ	Europe/Prague	863033069630348388
22.49396	-105.36369	Acaponeta	MX	America/Mazatlan	3590433799317662436
-29.2975	-51.50361	Carlos Barbosa	BR	America/Sao_Paulo	3590433799317662394
15.58552	102.42587	Bua Yai	TH	Asia/Bangkok	3590433799317661651
42.67164	14.01481	Roseto degli Abruzzi	IT	Europe/Rome	3590433799317662212
-33.75881	150.99292	Baulkham Hills	AU	Australia/Sydney	3590433799317661016
-10.33333	39.28333	Nyangao	TZ	Africa/Dar_es_Salaam	3590433799317661164
38.07789	13.44275	Villabate	IT	Europe/Rome	8630330696303481016
37.49073	-2.77259	Baza	ES	Europe/Madrid	863033069630348636
11.8659	34.3869	Ar Ruseris	SD	Africa/Khartoum	8630330696303482477
37.35813	-6.03731	San Juan de Aznalfarache	ES	Europe/Madrid	3590433799317662196
30.81383	75.16878	Moga	IN	Asia/Kolkata	3590433799317661289
41.1053	-7.32097	Custoias	PT	Europe/Lisbon	8630330696303481941
40.68066	-73.47429	Massapequa	US	America/New_York	359043379931766239
-5.41667	38.01667	Chanika	TZ	Africa/Dar_es_Salaam	359043379931766361
37.65181	120.33063	Longgang	CN	Asia/Shanghai	8630330696303482113
24.81757	84.63445	Rafiganj	IN	Asia/Kolkata	3590433799317661081
50.74497	3.20639	Mouscron	BE	Europe/Brussels	3590433799317662030
-1.6	103.61667	Jambi City	ID	Asia/Jakarta	3590433799317661263
15.48131	-86.57415	Olanchito	HN	America/Tegucigalpa	8630330696303481982
55.63711	37.38115	Solntsevo	RU	Europe/Moscow	863033069630348487
41.24264	16.50104	Bisceglie	IT	Europe/Rome	359043379931766197
41.27621	-72.86843	East Haven	US	America/New_York	863033069630348503
-8.43333	114.33333	Muncar	ID	Asia/Jakarta	3590433799317661610
-3.5403	118.9707	Majene	ID	Asia/Makassar	3590433799317661149
34.56861	105.89333	Beidao	CN	Asia/Shanghai	863033069630348545
11.84962	-86.19903	Jinotepe	NI	America/Managua	8630330696303481834
38.58894	-89.99038	Fairview Heights	US	America/Chicago	8630330696303482238
48.73218	11.18709	Neuburg an der Donau	DE	Europe/Berlin	3590433799317662261
45.51667	4.86667	Vienne	FR	Europe/Paris	8630330696303482436
42.35843	-71.05977	Boston	US	America/New_York	3590433799317661123
20.28527	-103.42897	Jocotepec	MX	America/Mexico_City	3590433799317661503
51.04962	12.1369	Zeitz	DE	Europe/Berlin	8630330696303481115
38.45598	48.87498	Astara	AZ	Asia/Baku	359043379931766767
-3.5403	118.9707	Majene	ID	Asia/Makassar	8630330696303482022
10.31672	123.89071	Cebu City	PH	Asia/Manila	8630330696303482303
13.8196	100.04427	Nakhon Pathom	TH	Asia/Bangkok	3590433799317661669
41.15376	-87.88754	Bourbonnais	US	America/Chicago	8630330696303482428
50.64336	7.2278	Bad Honnef	DE	Europe/Berlin	3590433799317661032
47.30997	8.52462	Adliswil	CH	Europe/Zurich	359043379931766932
-4.24444	-42.29444	Barras	BR	America/Fortaleza	863033069630348685
34.06635	-84.67837	Acworth	US	America/New_York	359043379931766445
47.90771	106.88324	Ulan Bator	MN	Asia/Ulaanbaatar	863033069630348297
-8.28333	-35.03333	Cabo	BR	America/Recife	359043379931766536
-7.60361	37.00438	Kidodi	TZ	Africa/Dar_es_Salaam	8630330696303482162
-20.87306	-48.29694	Viradouro	BR	America/Sao_Paulo	359043379931766213
-23.44361	-51.87389	Sarandi	BR	America/Sao_Paulo	8630330696303482105
49.07866	30.96755	Zvenihorodka	UA	Europe/Kyiv	3590433799317662477
-7.0981	109.3243	Randudongkal	ID	Asia/Jakarta	3590433799317661891
41.0051	-73.78458	Scarsdale	US	America/New_York	3590433799317661693
-16.25	-69.08333	Yunguyo	PE	America/Lima	3590433799317661172
34.15429	3.50309	Messaad	DZ	Africa/Algiers	8630330696303482451
-33.75881	150.99292	Baulkham Hills	AU	Australia/Sydney	359043379931766973
-6.8048	110.8405	Kudus	ID	Asia/Jakarta	3590433799317662477
40.64621	-73.97069	Kensington	US	America/New_York	3590433799317661552
25.75728	75.37991	Deoli	IN	Asia/Kolkata	3590433799317662212
-4.16694	-40.7475	Guaraciaba do Norte	BR	America/Fortaleza	3590433799317662014
11.12018	76.11996	Manjeri	IN	Asia/Kolkata	3590433799317661636
51.39323	0.47713	Strood	GB	Europe/London	8630330696303481966
47.38093	-122.23484	Kent	US	America/Los_Angeles	863033069630348966
48.90472	2.2469	La Garenne-Colombes	FR	Europe/Paris	863033069630348206
38.17492	-122.2608	American Canyon	US	America/Los_Angeles	8630330696303481891
19.8173	-97.35992	Teziutlan	MX	America/Mexico_City	359043379931766429
41.54566	-71.29144	Middletown	US	America/New_York	359043379931766411
30.24706	115.04814	Huangshi	CN	Asia/Shanghai	8630330696303481438
53.95278	32.86389	Roslavl‚Äô	RU	Europe/Moscow	3590433799317662089
41.09246	45.36561	Qazax	AZ	Asia/Baku	8630330696303482485
50.71229	4.52529	Rixensart	BE	Europe/Brussels	359043379931766197
58.23583	92.48278	Lesosibirsk	RU	Asia/Krasnoyarsk	8630330696303482345
42.50729	1.53414	les Escaldes	AD	Europe/Andorra	8630330696303482386
-17.74431	-48.62789	Caldas Novas	BR	America/Sao_Paulo	359043379931766254
22.83957	91.84128	Manikchari	BD	Asia/Dhaka	359043379931766569
49.952431	15.268654	Kutná Hora	CZ	Europe/Prague	863033069630348446
51.955	5.22778	Culemborg	NL	Europe/Amsterdam	3590433799317661495
34.63915	-120.45794	Lompoc	US	America/Los_Angeles	3590433799317661784
18.20854	-71.10077	Santa Cruz de Barahona	DO	America/Santo_Domingo	3590433799317661594
-22.9	44.53333	Sakaraha	MG	Indian/Antananarivo	3590433799317662451
41.80753	-87.65644	New City	US	America/Chicago	3590433799317662014
52.66277	-2.01111	Great Wyrley	GB	Europe/London	8630330696303481206
40.92298	14.30935	Afragola	IT	Europe/Rome	3590433799317661875
20.14298	-77.43532	Media Luna	CU	America/Havana	3590433799317661271
5.20856	-74.73584	Honda	CO	America/Bogota	3590433799317661768
-10.95817	-38.79084	Tucano	BR	America/Bahia	863033069630348248
-4.42472	-41.45861	Pedro II	BR	America/Fortaleza	8630330696303481818
45.40008	-73.58248	Sainte-Catherine	CA	America/Toronto	3590433799317662428
-37.88333	145.06667	Carnegie	AU	Australia/Melbourne	8630330696303482170
39.71734	-74.96933	Sicklerville	US	America/New_York	359043379931766627
0.51667	101.44167	Pekanbaru	ID	Asia/Jakarta	3590433799317661545
6.9909	79.883	Hendala	LK	Asia/Colombo	3590433799317661685
26.44931	91.61356	Rangia	IN	Asia/Kolkata	3590433799317662444
-6.48167	106.85417	Cibinong	ID	Asia/Jakarta	8630330696303481073
41.29444	69.67639	Parkent	UZ	Asia/Tashkent	3590433799317662030
24.05979	77.40858	Leteri	IN	Asia/Kolkata	3590433799317661628
41.72059	-87.70172	Evergreen Park	US	America/Chicago	3590433799317661362
25.95533	68.88871	Jhol	PK	Asia/Karachi	359043379931766429
12.1277	78.15794	Dharmapuri	IN	Asia/Kolkata	3590433799317661248
41.47892	-87.45476	Schererville	US	America/Chicago	359043379931766023
39.72943	-104.83192	Aurora	US	America/Denver	359043379931766635
34.85	117.33333	Taozhuang	CN	Asia/Shanghai	3590433799317661164
42.62833	20.89389	Glogovac	XK	Europe/Belgrade	863033069630348669
25.95533	68.88871	Jhol	PK	Asia/Karachi	8630330696303481974
-16.25	-69.08333	Yunguyo	PE	America/Lima	8630330696303481479
34.61667	135.6	Yao	JP	Asia/Tokyo	8630330696303481719
3.31332	117.59152	Tarakan	ID	Asia/Makassar	8630330696303482139
55.8736	85.4265	Yashkino	RU	Asia/Novokuznetsk	8630330696303481586
39.43534	-84.20299	Lebanon	US	America/New_York	863033069630348602
41.6764	-91.58045	Coralville	US	America/Chicago	3590433799317662493
51.20219	7.36027	Radevormwald	DE	Europe/Berlin	359043379931766403
44.98901	38.94324	Yablonovskiy	RU	Europe/Moscow	359043379931766239
12.12278	-61.62498	Grenville	GD	America/Grenada	8630330696303481859
45.75279	130.57211	Boli	CN	Asia/Shanghai	3590433799317662105
41.16704	-73.20483	Bridgeport	US	America/New_York	3590433799317661248
48.49144	9.20427	Reutlingen	DE	Europe/Berlin	359043379931766346
45.0408	-93.263	Columbia Heights	US	America/Chicago	3590433799317661966
31.84568	-102.36764	Odessa	US	America/Chicago	8630330696303482154
53.6052	10.03988	Barmbek-Nord	DE	Europe/Berlin	863033069630348966
51.78771	56.36091	Saraktash	RU	Asia/Yekaterinburg	359043379931766411
23.49668	86.68363	Adra	IN	Asia/Kolkata	3590433799317662345
34.56861	105.89333	Beidao	CN	Asia/Shanghai	8630330696303481834
-23.44361	-51.87389	Sarandi	BR	America/Sao_Paulo	8630330696303481867
37.1759	128.9889	T‚Äôaebaek	KR	Asia/Seoul	3590433799317661271
5.27247	-3.59625	Bonoua	CI	Africa/Abidjan	359043379931766130
46.51872	86.00214	Hoxtolgay	CN	Asia/Urumqi	3590433799317661610
41.55815	-73.0515	Waterbury	US	America/New_York	3590433799317662170
54.60528	18.34717	Reda	PL	Europe/Warsaw	359043379931766312
27.0174	49.62251	Al Jubayl	SA	Asia/Riyadh	863033069630348644
27.0174	49.62251	Al Jubayl	SA	Asia/Riyadh	8630330696303482345
37.1759	128.9889	T‚Äôaebaek	KR	Asia/Seoul	3590433799317662261
35.88264	-80.08199	Thomasville	US	America/New_York	8630330696303481495
47.46657	84.87144	Zaysan	KZ	Asia/Almaty	359043379931766650
30.76468	74.12286	Kanganpur	PK	Asia/Karachi	3590433799317661008
45.4473	-73.75335	Dorval	CA	America/Toronto	8630330696303481560
51.38673	0.30367	Hartley	GB	Europe/London	8630330696303481644
-15.675	-38.94722	Canavieiras	BR	America/Bahia	3590433799317662204
-4.83	29.65806	Mwandiga	TZ	Africa/Dar_es_Salaam	359043379931766643
23.04419	-82.00919	Jaruco	CU	America/Havana	3590433799317662295
53.69786	-2.68758	Leyland	GB	Europe/London	8630330696303481107
48.79325	2.29275	Fontenay-aux-Roses	FR	Europe/Paris	863033069630348354
27.52948	68.75915	Khairpur Mir‚Äôs	PK	Asia/Karachi	863033069630348123
38.58894	-89.99038	Fairview Heights	US	America/Chicago	8630330696303481966
47.76232	-122.2054	Bothell	US	America/Los_Angeles	863033069630348586
40.93121	-73.89875	Yonkers	US	America/New_York	359043379931766247
-34.88422	150.60036	Nowra	AU	Australia/Sydney	3590433799317661727
45.39402	9.29109	San Giuliano Milanese	IT	Europe/Rome	8630330696303481222
19.30157	72.85107	Bhayandar	IN	Asia/Kolkata	863033069630348503
43.16547	-77.70066	Gates-North Gates	US	America/New_York	8630330696303481925
13.70167	-89.10944	Ilopango	SV	America/El_Salvador	863033069630348677
11.85	38.01667	Debre Tabor	ET	Africa/Addis_Ababa	8630330696303481834
5.20856	-74.73584	Honda	CO	America/Bogota	863033069630348818
57.47908	-4.22398	Inverness	GB	Europe/London	3590433799317661727
60.02427	30.28491	Kolomyagi	RU	Europe/Moscow	8630330696303482204
33.72255	-116.37697	Palm Desert	US	America/Los_Angeles	359043379931766213
10.63504	-85.43772	Liberia	CR	America/Costa_Rica	359043379931766684
27.92333	118.53333	Pucheng	CN	Asia/Shanghai	8630330696303481586
-6.91806	106.92667	Sukabumi	ID	Asia/Jakarta	359043379931766726
58.1908	40.17171	Danilov	RU	Europe/Moscow	8630330696303481446
56.85836	35.90057	Tver	RU	Europe/Moscow	8630330696303481081
25.67927	-80.31727	Kendall	US	America/New_York	3590433799317661891
28.54944	-81.77285	Clermont	US	America/New_York	3590433799317661016
27.85	112.9	Xiangtan	CN	Asia/Shanghai	8630330696303481289
38.40917	112.73333	Xinzhou	CN	Asia/Shanghai	8630330696303481263
34.65918	109.22921	Yanliang	CN	Asia/Shanghai	863033069630348313
-26.22861	-52.67056	Pato Branco	BR	America/Sao_Paulo	863033069630348628
-19.65	47.31667	Antanifotsy	MG	Indian/Antananarivo	863033069630348560
32.42067	-104.22884	Carlsbad	US	America/Denver	8630330696303482097
51.40944	46.04833	Privolzhskiy	RU	Europe/Saratov	863033069630348487
39.00622	-77.4286	Sterling	US	America/New_York	3590433799317662105
13.73417	-89.71472	Sonzacate	SV	America/El_Salvador	8630330696303482089
1.6561	103.6032	Kulai	MY	Asia/Kuala_Lumpur	3590433799317662113
52.59319	13.32127	Wittenau	DE	Europe/Berlin	8630330696303482154
52.68333	0.93333	East Dereham	GB	Europe/London	3590433799317661651
5.6561	-75.87877	Andes	CO	America/Bogota	863033069630348545
40.49748	44.7662	Hrazdan	AM	Asia/Yerevan	3590433799317662410
35.88264	-80.08199	Thomasville	US	America/New_York	359043379931766965
5.27247	-3.59625	Bonoua	CI	Africa/Abidjan	3590433799317662436
-38.16604	145.13643	Frankston South	AU	Australia/Melbourne	863033069630348743
44.99012	-123.02621	Keizer	US	America/Los_Angeles	3590433799317661792
10.7375	122.9666	Talisay	PH	Asia/Manila	3590433799317661941
49.07866	30.96755	Zvenihorodka	UA	Europe/Kyiv	359043379931766544
-24.19436	29.00974	Mokopane	ZA	Africa/Johannesburg	863033069630348768
41.92361	20.91361	Bogovinje	MK	Europe/Skopje	8630330696303482428
48.98693	2.44892	Gonesse	FR	Europe/Paris	359043379931766767
41.27621	-72.86843	East Haven	US	America/New_York	8630330696303481487
49.738430	13.373637	Plzeň	CZ	Europe/Prague	8630330696303481297
53.69786	-2.68758	Leyland	GB	Europe/London	8630330696303481792
0.76755	24.43973	Yangambi	CD	Africa/Lubumbashi	8630330696303481172
-15.675	-38.94722	Canavieiras	BR	America/Bahia	359043379931766155
50.64336	7.2278	Bad Honnef	DE	Europe/Berlin	863033069630348180
49.41029	38.15035	Svatove	UA	Europe/Zaporozhye	3590433799317661875
3.31332	117.59152	Tarakan	ID	Asia/Makassar	8630330696303481875
16.455	120.5875	La Trinidad	PH	Asia/Manila	3590433799317662089
45.47885	133.42825	Lesozavodsk	RU	Asia/Vladivostok	3590433799317661354
38.96667	-0.18333	Gandia	ES	Europe/Madrid	359043379931766338
46.32313	-0.45877	Niort	FR	Europe/Paris	3590433799317662097
-21.42917	-45.94722	Alfenas	BR	America/Sao_Paulo	3590433799317661388
19.30157	72.85107	Bhayandar	IN	Asia/Kolkata	3590433799317662337
6.15038	6.83042	Nkpor	NG	Africa/Lagos	359043379931766080
5.4709	100.24529	Batu Feringgi	MY	Asia/Kuala_Lumpur	8630330696303481917
48.35149	8.96317	Hechingen	DE	Europe/Berlin	3590433799317661131
40.1675	34.37389	Sungurlu	TR	Europe/Istanbul	3590433799317661404
50.9803	11.32903	Weimar	DE	Europe/Berlin	863033069630348404
6.8485	3.64633	Shagamu	NG	Africa/Lagos	359043379931766056
53.14657	140.72287	Nikolayevsk-on-Amure	RU	Asia/Vladivostok	863033069630348578
45.73333	4.91667	Bron	FR	Europe/Paris	359043379931766544
18.03496	-66.8499	Yauco	PR	America/Puerto_Rico	359043379931766502
21.34222	71.30633	Kundla	IN	Asia/Kolkata	3590433799317661446
65.93381	111.4834	Aykhal	RU	Asia/Yakutsk	359043379931766239
21.53889	71.57737	Gariadhar	IN	Asia/Kolkata	359043379931766049
-5.41667	38.01667	Chanika	TZ	Africa/Dar_es_Salaam	863033069630348818
12.74482	4.52514	Argungu	NG	Africa/Lagos	8630330696303482006
55.75556	60.70278	Ozersk	RU	Asia/Yekaterinburg	8630330696303481941
41.91886	8.73812	Ajaccio	FR	Europe/Paris	8630330696303481974
-38.16604	145.13643	Frankston South	AU	Australia/Melbourne	8630330696303481073
44.59445	11.04979	Castelfranco Emilia	IT	Europe/Rome	8630330696303482063
49.03685	8.70745	Bretten	DE	Europe/Berlin	359043379931766585
-34.88422	150.60036	Nowra	AU	Australia/Sydney	8630330696303481412
-11.94306	-76.70944	Chosica	PE	America/Lima	8630330696303481198
41.77583	140.73667	Hakodate	JP	Asia/Tokyo	3590433799317661529
32.61603	44.02488	Karbala	IQ	Asia/Baghdad	8630330696303481966
-21.42917	-45.94722	Alfenas	BR	America/Sao_Paulo	863033069630348636
53.43333	-7.95	Athlone	IE	Europe/Dublin	3590433799317662329
60.2052	24.6522	Espoo	FI	Europe/Helsinki	3590433799317661420
43.71032	-1.05366	Dax	FR	Europe/Paris	8630330696303481537
44.59445	11.04979	Castelfranco Emilia	IT	Europe/Rome	3590433799317662303
47.48444	36.25361	Polohy	UA	Europe/Zaporozhye	3590433799317661255
-10.91111	-37.07167	Aracaju	BR	America/Maceio	863033069630348081
-3.20333	-52.20639	Altamira	BR	America/Santarem	359043379931766676
52.21099	7.02238	Gronau	DE	Europe/Berlin	863033069630348172
27.34089	117.4831	Shaowu	CN	Asia/Shanghai	3590433799317662253
49.738430	13.373637	Plzeň	CZ	Europe/Prague	8630330696303481875
50.5107	18.30056	Strzelce Opolskie	PL	Europe/Warsaw	3590433799317661883
47.83333	59.6	Shalqar	KZ	Asia/Aqtobe	359043379931766288
35.48199	137.02166	Minokamo	JP	Asia/Tokyo	863033069630348545
29.84576	-90.10674	Estelle	US	America/Chicago	359043379931766577
10.66668	-61.51889	Port of Spain	TT	America/Port_of_Spain	8630330696303481834
12.35275	121.06761	San Jose	PH	Asia/Manila	863033069630348727
10.20898	123.758	Naga	PH	Asia/Manila	359043379931766841
51.40148	-1.32471	Newbury	GB	Europe/London	359043379931766114
41.72059	-87.70172	Evergreen Park	US	America/Chicago	8630330696303481065
15.58552	102.42587	Bua Yai	TH	Asia/Bangkok	3590433799317661354
40.64621	-73.97069	Kensington	US	America/New_York	3590433799317661271
9.89206	43.38531	Baki	SO	Africa/Mogadishu	359043379931766429
-20.87306	-48.29694	Viradouro	BR	America/Sao_Paulo	8630330696303482329
51.12794	4.21372	Temse	BE	Europe/Brussels	359043379931766163
-2.68333	33	Usagara	TZ	Africa/Dar_es_Salaam	8630330696303482378
23.18	88.58	Aistala	IN	Asia/Kolkata	3590433799317661842
20.22816	-103.5687	Zacoalco de Torres	MX	America/Mexico_City	863033069630348271
42.7392	-84.62081	Waverly	US	America/Detroit	3590433799317662378
-31.25033	-61.4867	Rafaela	AR	America/Argentina/Cordoba	359043379931766973
36.20389	127.08472	Nonsan	KR	Asia/Seoul	8630330696303482030
35.82756	137.95378	Ina	JP	Asia/Tokyo	8630330696303482345
43.41949	77.0202	Otegen Batyra	KZ	Asia/Almaty	359043379931766593
58.7002	59.4839	Kachkanar	RU	Asia/Yekaterinburg	8630330696303482329
17.06542	-96.72365	Oaxaca	MX	America/Mexico_City	863033069630348651
4.94273	15.87735	Carnot	CF	Africa/Bangui	3590433799317661271
16.0567	103.65309	Roi Et	TH	Asia/Bangkok	359043379931766254
7.50251	5.06258	Igbara-Odo	NG	Africa/Lagos	8630330696303482345
40.92298	14.30935	Afragola	IT	Europe/Rome	359043379931766429
43.96222	43.63417	Novopavlovsk	RU	Europe/Moscow	8630330696303481495
54.84444	38.16694	Kashira	RU	Europe/Moscow	8630330696303481545
17.34769	78.55757	Lal Bahadur Nagar	IN	Asia/Kolkata	8630330696303481156
37.73222	115.70111	Hengshui	CN	Asia/Shanghai	8630330696303481123
47.38093	-122.23484	Kent	US	America/Los_Angeles	359043379931766122
38.10558	-1.86343	Caravaca	ES	Europe/Madrid	8630330696303481537
12.04161	75.35927	Talipparamba	IN	Asia/Kolkata	863033069630348933
29.65163	-82.32483	Gainesville	US	America/New_York	8630330696303481834
53.78333	-1.06667	Selby	GB	Europe/London	8630330696303482238
48.79325	2.29275	Fontenay-aux-Roses	FR	Europe/Paris	863033069630348297
-33.38056	-56.52361	Durazno	UY	America/Montevideo	3590433799317662139
41.57721	-93.71133	West Des Moines	US	America/Chicago	3590433799317662196
47.83333	59.6	Shalqar	KZ	Asia/Aqtobe	863033069630348560
12.35275	121.06761	San Jose	PH	Asia/Manila	8630330696303481990
2.2139	102.3278	Kampung Ayer Molek	MY	Asia/Kuala_Lumpur	8630330696303481743
44.98901	38.94324	Yablonovskiy	RU	Europe/Moscow	8630330696303481404
6.25947	102.05461	Tak Bai	TH	Asia/Bangkok	863033069630348685
28.71271	77.656	Pilkhua	IN	Asia/Kolkata	3590433799317661107
-8.43333	114.33333	Muncar	ID	Asia/Jakarta	8630330696303481354
44.22639	22.53083	Negotin	RS	Europe/Belgrade	8630330696303482105
54.52156	9.5586	Schleswig	DE	Europe/Berlin	3590433799317661818
51.40944	46.04833	Privolzhskiy	RU	Europe/Saratov	863033069630348941
50.5107	18.30056	Strzelce Opolskie	PL	Europe/Warsaw	863033069630348685
29.98869	122.20488	Zhoushan	CN	Asia/Shanghai	3590433799317661032
40.82232	-74.15987	Nutley	US	America/New_York	3590433799317661123
51.08468	7.11393	Burscheid	DE	Europe/Berlin	863033069630348768
-31.4488	-60.93173	Esperanza	AR	America/Argentina/Cordoba	8630330696303482428
54.58048	16.86194	Ustka	PL	Europe/Warsaw	863033069630348578
21.34222	71.30633	Kundla	IN	Asia/Kolkata	863033069630348974
23.04419	-82.00919	Jaruco	CU	America/Havana	8630330696303481156
46.51872	86.00214	Hoxtolgay	CN	Asia/Urumqi	3590433799317661701
-7.81667	112.01667	Kediri	ID	Asia/Jakarta	863033069630348370
40.72586	8.55552	Sassari	IT	Europe/Rome	8630330696303481370
28.88162	120.03308	Guli	CN	Asia/Shanghai	359043379931766676
41.0051	-73.78458	Scarsdale	US	America/New_York	8630330696303482451
48.25	16.4	Floridsdorf	AT	Europe/Vienna	3590433799317661743
60.2052	24.6522	Espoo	FI	Europe/Helsinki	3590433799317662196
64.5635	39.8302	Severodvinsk	RU	Europe/Moscow	8630330696303481883
50.26729	-119.27337	Vernon	CA	America/Vancouver	3590433799317662436
24.28859	116.11768	Meizhou	CN	Asia/Shanghai	863033069630348909
33.08014	-83.2321	Milledgeville	US	America/New_York	359043379931766767
45.50369	11.412	Montecchio Maggiore-Alte Ceccato	IT	Europe/Rome	3590433799317661131
5.27247	-3.59625	Bonoua	CI	Africa/Abidjan	3590433799317661685
26.11527	86.59509	Supaul	IN	Asia/Kolkata	359043379931766924
55.39485	43.83992	Arzamas	RU	Europe/Moscow	8630330696303482303
51.24197	4.82313	Lille	BE	Europe/Brussels	863033069630348537
-27.4338	-65.61427	Aguilares	AR	America/Argentina/Tucuman	3590433799317662329
6.03333	37.55	Arba Minch	ET	Africa/Addis_Ababa	3590433799317662477
33.44872	-86.78777	Vestavia Hills	US	America/Chicago	8630330696303482196
10.98778	-74.95472	Puerto Colombia	CO	America/Bogota	359043379931766932
10.98778	-74.95472	Puerto Colombia	CO	America/Bogota	8630330696303482394
6.25947	102.05461	Tak Bai	TH	Asia/Bangkok	863033069630348776
20.88098	75.11937	Parola	IN	Asia/Kolkata	863033069630348925
24.05979	77.40858	Leteri	IN	Asia/Kolkata	359043379931766825
7.50251	5.06258	Igbara-Odo	NG	Africa/Lagos	3590433799317662014
21.01858	-101.2591	Guanajuato	MX	America/Mexico_City	8630330696303481065
34.56861	105.89333	Beidao	CN	Asia/Shanghai	8630330696303481636
6.8485	3.64633	Shagamu	NG	Africa/Lagos	8630330696303481594
51.78967	1.15597	Clacton-on-Sea	GB	Europe/London	863033069630348933
21.59983	71.21169	Amreli	IN	Asia/Kolkata	3590433799317661982
-7.0981	109.3243	Randudongkal	ID	Asia/Jakarta	359043379931766023
34.09668	-117.71978	Claremont	US	America/Los_Angeles	3590433799317662493
44.99012	-123.02621	Keizer	US	America/Los_Angeles	8630330696303482253
40.94065	-73.99681	Dumont	US	America/New_York	3590433799317661651
22.83957	91.84128	Manikchari	BD	Asia/Dhaka	359043379931766569
20.74122	-100.44843	Santa Rosa Jauregui	MX	America/Mexico_City	863033069630348982
32.5007	-94.74049	Longview	US	America/Chicago	359043379931766965
15.58552	102.42587	Bua Yai	TH	Asia/Bangkok	3590433799317662147
39.96348	-4.83076	Talavera de la Reina	ES	Europe/Madrid	3590433799317661073
6.8485	3.64633	Shagamu	NG	Africa/Lagos	8630330696303482212
-38.16604	145.13643	Frankston South	AU	Australia/Melbourne	8630330696303481339
33.7207	-116.21677	Indio	US	America/Los_Angeles	8630330696303482428
40.55851	17.80774	Mesagne	IT	Europe/Rome	3590433799317662238
-33.38056	-56.52361	Durazno	UY	America/Montevideo	359043379931766890
39.33427	-76.43941	Middle River	US	America/New_York	3590433799317661974
39.96348	-4.83076	Talavera de la Reina	ES	Europe/Madrid	3590433799317661271
49.03685	8.70745	Bretten	DE	Europe/Berlin	359043379931766700
35.82756	137.95378	Ina	JP	Asia/Tokyo	863033069630348867
-30.60106	-71.19901	Ovalle	CL	America/Santiago	359043379931766452
40.81	-73.9625	Morningside Heights	US	America/New_York	359043379931766353
23.18	88.58	Aistala	IN	Asia/Kolkata	863033069630348719
55.25	24.75	Ukmerge	LT	Europe/Vilnius	3590433799317662246
25.87498	86.59611	Saharsa	IN	Asia/Kolkata	8630330696303481628
41.54566	-71.29144	Middletown	US	America/New_York	863033069630348230
43.61092	3.87723	Montpellier	FR	Europe/Paris	359043379931766619
39.43534	-84.20299	Lebanon	US	America/New_York	3590433799317661040
32.52515	-93.75018	Shreveport	US	America/Chicago	3590433799317661214
37.52487	-77.55777	Bon Air	US	America/New_York	3590433799317662071
16.0567	103.65309	Roi Et	TH	Asia/Bangkok	863033069630348842
-28.24	-48.67028	Imbituba	BR	America/Sao_Paulo	3590433799317662428
6.46838	-73.26022	Socorro	CO	America/Bogota	8630330696303481214
52.21099	7.02238	Gronau	DE	Europe/Berlin	8630330696303482436
20.21322	-100.88023	Salvatierra	MX	America/Mexico_City	863033069630348008
12.97389	123.99333	Sorsogon	PH	Asia/Manila	3590433799317662113
40.67705	-73.89125	Cypress Hills	US	America/New_York	3590433799317661255
24.41288	76.56719	Aklera	IN	Asia/Kolkata	8630330696303481099
39.96348	-4.83076	Talavera de la Reina	ES	Europe/Madrid	359043379931766312
34.14251	-118.25508	Glendale	US	America/Los_Angeles	863033069630348909
-36.9256	-73.02841	Chiguayante	CL	America/Santiago	8630330696303481495
13.44581	101.18445	Phanat Nikhom	TH	Asia/Bangkok	8630330696303481693
24.41288	76.56719	Aklera	IN	Asia/Kolkata	3590433799317661065
27.09978	-82.45426	Venice	US	America/New_York	3590433799317662386
36	139.55722	Okegawa	JP	Asia/Tokyo	3590433799317662295
11.12018	76.11996	Manjeri	IN	Asia/Kolkata	3590433799317661859
54.39635	24.04142	Alytus	LT	Europe/Vilnius	3590433799317661693
34.25807	-88.70464	Tupelo	US	America/Chicago	3590433799317661032
-3.14306	-58.44417	Itacoatiara	BR	America/Manaus	3590433799317661396
48.86667	2.08333	Marly-le-Roi	FR	Europe/Paris	3590433799317661214
41.24264	16.50104	Bisceglie	IT	Europe/Rome	3590433799317661982
49.952431	15.268654	Kutná Hora	CZ	Europe/Prague	8630330696303481370
-38.65333	178.00417	Gisborne	NZ	Pacific/Auckland	8630330696303481230
34.61667	135.6	Yao	JP	Asia/Tokyo	8630330696303481438
41.29444	69.67639	Parkent	UZ	Asia/Tashkent	3590433799317662295
21.34222	71.30633	Kundla	IN	Asia/Kolkata	863033069630348263
52.21099	7.02238	Gronau	DE	Europe/Berlin	3590433799317661792
54.39635	24.04142	Alytus	LT	Europe/Vilnius	3590433799317662303
32.17629	75.06583	Fazilpur	PK	Asia/Karachi	3590433799317662063
27.09978	-82.45426	Venice	US	America/New_York	3590433799317662444
52.59319	13.32127	Wittenau	DE	Europe/Berlin	863033069630348289
29.53885	-95.44744	Fresno	US	America/Chicago	359043379931766742
-33.38056	-56.52361	Durazno	UY	America/Montevideo	863033069630348479
